[{"id": "ThUfjlii1hY3Yyx2GY7D9A", "alias": "iron-and-ale-lynchburg-tap-and-table-lynchburg", "name": "Iron & Ale Lynchburg Tap and Table", "image_url": "https://s3-media2.fl.yelpcdn.com/bphoto/Hp7ez9oiodkf2UHhdcJhJg/o.jpg", "is_closed": false, "url": "https://www.yelp.com/biz/iron-and-ale-lynchburg-tap-and-table-lynchburg?adjust_creative=6H8lmVuwW0ASiCP-qa0vsQ&utm_campaign=yelp_api_v3&utm_medium=api_v3_business_search&utm_source=6H8lmVuwW0ASiCP-qa0vsQ", "review_count": 227, "categories": [{"alias": "newamerican", "title": "American (New)"}, {"alias": "bars", "title": "Bars"}], "rating": 4.0, "coordinates": {"latitude": 37.33946, "longitude": -79.2248}, "transactions": ["pickup", "delivery"], "price": "$$", "location": {"address1": "106 Cornerstone St", "address2": null, "address3": "", "city": "Lynchburg", "zip_code": "24502", "country": "US", "state": "VA", "display_address": ["106 Cornerstone St", "Lynchburg, VA 24502"]}, "phone": "+14349449697", "display_phone": "(434) 944-9697", "distance": 5891.180237199969}, {"id": "9kiHCpIDcdyjK9PkxnaFLQ", "alias": "bulls-steakhouse-forest", "name": "Bulls Steakhouse", "image_url": "https://s3-media2.fl.yelpcdn.com/bphoto/c9VhKCy8hLlbP3TWyXBsgA/o.jpg", "is_closed": false, "url": "https://www.yelp.com/biz/bulls-steakhouse-forest?adjust_creative=6H8lmVuwW0ASiCP-qa0vsQ&utm_campaign=yelp_api_v3&utm_medium=api_v3_business_search&utm_source=6H8lmVuwW0ASiCP-qa0vsQ", "review_count": 48, "categories": [{"alias": "steak", "title": "Steakhouses"}], "rating": 4.0, "coordinates": {"latitude": 37.37881, "longitude": -79.24887}, "transactions": ["delivery"], "price": "$$", "location": {"address1": "1887 Graves Mill Rd", "address2": "", "address3": "", "city": "Forest", "zip_code": "24551", "country": "US", "state": "VA", "display_address": ["1887 Graves Mill Rd", "Forest, VA 24551"]}, "phone": "+14343857581", "display_phone": "(434) 385-7581", "distance": 4910.24180867585}, {"id": "P_ohsmG-EUMBregPCcyphw", "alias": "william-and-henry-steakhouse-lynchburg", "name": "William & Henry Steakhouse", "image_url": "https://s3-media1.fl.yelpcdn.com/bphoto/Cch7OFdXME-eN-ebwYzKyg/o.jpg", "is_closed": false, "url": "https://www.yelp.com/biz/william-and-henry-steakhouse-lynchburg?adjust_creative=6H8lmVuwW0ASiCP-qa0vsQ&utm_campaign=yelp_api_v3&utm_medium=api_v3_business_search&utm_source=6H8lmVuwW0ASiCP-qa0vsQ", "review_count": 55, "categories": [{"alias": "steak", "title": "Steakhouses"}], "rating": 4.0, "coordinates": {"latitude": 37.41535916319549, "longitude": -79.14391974566162}, "transactions": ["delivery"], "location": {"address1": "712 Church St", "address2": null, "address3": "", "city": "Lynchburg", "zip_code": "24504", "country": "US", "state": "VA", "display_address": ["712 Church St", "Lynchburg, VA 24504"]}, "phone": "+14346164423", "display_phone": "(434) 616-4423", "distance": 5317.230854842571}, {"id": "cJR6sta1Md3QoTq3xhQq0w", "alias": "shoemakers-restaurant-lynchburg", "name": "Shoemaker's Restaurant", "image_url": "https://s3-media3.fl.yelpcdn.com/bphoto/YHefR9PegGC0VIr71n26aQ/o.jpg", "is_closed": false, "url": "https://www.yelp.com/biz/shoemakers-restaurant-lynchburg?adjust_creative=6H8lmVuwW0ASiCP-qa0vsQ&utm_campaign=yelp_api_v3&utm_medium=api_v3_business_search&utm_source=6H8lmVuwW0ASiCP-qa0vsQ", "review_count": 213, "categories": [{"alias": "newamerican", "title": "American (New)"}, {"alias": "seafood", "title": "Seafood"}, {"alias": "steak", "title": "Steakhouses"}], "rating": 4.0, "coordinates": {"latitude": 37.411627, "longitude": -79.137913}, "transactions": ["delivery"], "price": "$$$", "location": {"address1": "1312 Commerce St", "address2": "", "address3": "", "city": "Lynchburg", "zip_code": "24501", "country": "US", "state": "VA", "display_address": ["1312 Commerce St", "Lynchburg, VA 24501"]}, "phone": "+14344551510", "display_phone": "(434) 455-1510", "distance": 5509.90206222947}, {"id": "MLbP36BXbNefVgVxGjJp9w", "alias": "benjamins-forest", "name": "Benjamin's", "image_url": "https://s3-media1.fl.yelpcdn.com/bphoto/0GKIJmTARxDGGRe_q2jMmA/o.jpg", "is_closed": false, "url": "https://www.yelp.com/biz/benjamins-forest?adjust_creative=6H8lmVuwW0ASiCP-qa0vsQ&utm_campaign=yelp_api_v3&utm_medium=api_v3_business_search&utm_source=6H8lmVuwW0ASiCP-qa0vsQ", "review_count": 100, "categories": [{"alias": "seafood", "title": "Seafood"}, {"alias": "steak", "title": "Steakhouses"}, {"alias": "tradamerican", "title": "American (Traditional)"}], "rating": 4.0, "coordinates": {"latitude": 37.36628, "longitude": -79.29494}, "transactions": ["delivery"], "price": "$$", "location": {"address1": "14900 Forest Rd", "address2": "", "address3": "", "city": "Forest", "zip_code": "24551", "country": "US", "state": "VA", "display_address": ["14900 Forest Rd", "Forest, VA 24551"]}, "phone": "+14345346077", "display_phone": "(434) 534-6077", "distance": 9440.648026032755}, {"id": "vqM0ss-rTDcMgXfLDtRe-g", "alias": "the-neighbors-place-lynchburg", "name": "The Neighbors Place", "image_url": "https://s3-media2.fl.yelpcdn.com/bphoto/1MNv8gYWug7HsyiZaNrziw/o.jpg", "is_closed": false, "url": "https://www.yelp.com/biz/the-neighbors-place-lynchburg?adjust_creative=6H8lmVuwW0ASiCP-qa0vsQ&utm_campaign=yelp_api_v3&utm_medium=api_v3_business_search&utm_source=6H8lmVuwW0ASiCP-qa0vsQ", "review_count": 209, "categories": [{"alias": "newamerican", "title": "American (New)"}, {"alias": "sandwiches", "title": "Sandwiches"}, {"alias": "sportsbars", "title": "Sports Bars"}], "rating": 4.0, "coordinates": {"latitude": 37.36257, "longitude": -79.24424}, "transactions": ["pickup", "delivery"], "price": "$$", "location": {"address1": "104 Paulette Cir", "address2": "", "address3": "", "city": "Lynchburg", "zip_code": "24502", "country": "US", "state": "VA", "display_address": ["104 Paulette Cir", "Lynchburg, VA 24502"]}, "phone": "+14344554300", "display_phone": "(434) 455-4300", "distance": 5390.125766966156}, {"id": "XJiLoYm5mzJ09Tp_Ib7gbQ", "alias": "ra-bistro-lynchburg", "name": "RA Bistro", "image_url": "https://s3-media3.fl.yelpcdn.com/bphoto/7lmTNHS1WLNyNKdkCdVqOg/o.jpg", "is_closed": false, "url": "https://www.yelp.com/biz/ra-bistro-lynchburg?adjust_creative=6H8lmVuwW0ASiCP-qa0vsQ&utm_campaign=yelp_api_v3&utm_medium=api_v3_business_search&utm_source=6H8lmVuwW0ASiCP-qa0vsQ", "review_count": 434, "categories": [{"alias": "newamerican", "title": "American (New)"}], "rating": 4.0, "coordinates": {"latitude": 37.4106499, "longitude": -79.13811}, "transactions": ["pickup", "delivery"], "price": "$$", "location": {"address1": "1344 Main St", "address2": "", "address3": "", "city": "Lynchburg", "zip_code": "24504", "country": "US", "state": "VA", "display_address": ["1344 Main St", "Lynchburg, VA 24504"]}, "phone": "+14348451601", "display_phone": "(434) 845-1601", "distance": 5429.324509381922}, {"id": "KxmLgGeQkNIKEyHylPSLeQ", "alias": "the-dahlia-lynchburg", "name": "The Dahlia", "image_url": "https://s3-media2.fl.yelpcdn.com/bphoto/iGzgGVsuAcegP87gHTF_1g/o.jpg", "is_closed": false, "url": "https://www.yelp.com/biz/the-dahlia-lynchburg?adjust_creative=6H8lmVuwW0ASiCP-qa0vsQ&utm_campaign=yelp_api_v3&utm_medium=api_v3_business_search&utm_source=6H8lmVuwW0ASiCP-qa0vsQ", "review_count": 86, "categories": [{"alias": "gastropubs", "title": "Gastropubs"}], "rating": 4.0, "coordinates": {"latitude": 37.4333045, "longitude": -79.1644948}, "transactions": ["delivery"], "price": "$$", "location": {"address1": "2221 Bedford Ave", "address2": "", "address3": "", "city": "Lynchburg", "zip_code": "24503", "country": "US", "state": "VA", "display_address": ["2221 Bedford Ave", "Lynchburg, VA 24503"]}, "phone": "+14348460601", "display_phone": "(434) 846-0601", "distance": 5809.7193883037235}, {"id": "zhJKfQCF9iYdaLO64MeYpw", "alias": "texas-roadhouse-lynchburg-2", "name": "TEXAS roadhouse", "image_url": "https://s3-media3.fl.yelpcdn.com/bphoto/Nt96StP9lp3lD3jazdRzkQ/o.jpg", "is_closed": false, "url": "https://www.yelp.com/biz/texas-roadhouse-lynchburg-2?adjust_creative=6H8lmVuwW0ASiCP-qa0vsQ&utm_campaign=yelp_api_v3&utm_medium=api_v3_business_search&utm_source=6H8lmVuwW0ASiCP-qa0vsQ", "review_count": 89, "categories": [{"alias": "tradamerican", "title": "American (Traditional)"}, {"alias": "steak", "title": "Steakhouses"}, {"alias": "bbq", "title": "Barbeque"}], "rating": 3.5, "coordinates": {"latitude": 37.35537, "longitude": -79.18478}, "transactions": [], "price": "$$", "location": {"address1": "3816 Wards Rd", "address2": "", "address3": "", "city": "Lynchburg", "zip_code": "24502", "country": "US", "state": "VA", "display_address": ["3816 Wards Rd", "Lynchburg, VA 24502"]}, "phone": "+14342371516", "display_phone": "(434) 237-1516", "distance": 3380.618585445148}, {"id": "HYjAbGowFRgqYHSryCmr5A", "alias": "greys-lynchburg", "name": "Grey's", "image_url": "https://s3-media2.fl.yelpcdn.com/bphoto/zfHfGjHboxuej2DMFjwm7w/o.jpg", "is_closed": false, "url": "https://www.yelp.com/biz/greys-lynchburg?adjust_creative=6H8lmVuwW0ASiCP-qa0vsQ&utm_campaign=yelp_api_v3&utm_medium=api_v3_business_search&utm_source=6H8lmVuwW0ASiCP-qa0vsQ", "review_count": 91, "categories": [{"alias": "tradamerican", "title": "American (Traditional)"}, {"alias": "salad", "title": "Salad"}, {"alias": "bars", "title": "Bars"}], "rating": 4.5, "coordinates": {"latitude": 37.4162315292824, "longitude": -79.1483396520522}, "transactions": [], "price": "$$", "location": {"address1": "512 Fifth St", "address2": "", "address3": null, "city": "Lynchburg", "zip_code": "24504", "country": "US", "state": "VA", "display_address": ["512 Fifth St", "Lynchburg, VA 24504"]}, "phone": "+14346164939", "display_phone": "(434) 616-4939", "distance": 5083.862112072095}, {"id": "MRhWa7MJm8YO6g2GC5tviw", "alias": "outback-steakhouse-lynchburg", "name": "Outback Steakhouse", "image_url": "https://s3-media2.fl.yelpcdn.com/bphoto/Po4cXafjWqYiilTiHXw3tw/o.jpg", "is_closed": false, "url": "https://www.yelp.com/biz/outback-steakhouse-lynchburg?adjust_creative=6H8lmVuwW0ASiCP-qa0vsQ&utm_campaign=yelp_api_v3&utm_medium=api_v3_business_search&utm_source=6H8lmVuwW0ASiCP-qa0vsQ", "review_count": 72, "categories": [{"alias": "steak", "title": "Steakhouses"}], "rating": 2.5, "coordinates": {"latitude": 37.38672373767315, "longitude": -79.1647739}, "transactions": ["pickup", "delivery"], "price": "$$", "location": {"address1": "3121 Albert Lankford Dr", "address2": "", "address3": "", "city": "Lynchburg", "zip_code": "24501", "country": "US", "state": "VA", "display_address": ["3121 Albert Lankford Dr", "Lynchburg, VA 24501"]}, "phone": "+14348473646", "display_phone": "(434) 847-3646", "distance": 2306.5403222552413}, {"id": "txSaUqvBGGel-j6obSh9RA", "alias": "skyline-lynchburg", "name": "Skyline", "image_url": "https://s3-media2.fl.yelpcdn.com/bphoto/4iGGZ7PkzbHZePnpPPHITw/o.jpg", "is_closed": false, "url": "https://www.yelp.com/biz/skyline-lynchburg?adjust_creative=6H8lmVuwW0ASiCP-qa0vsQ&utm_campaign=yelp_api_v3&utm_medium=api_v3_business_search&utm_source=6H8lmVuwW0ASiCP-qa0vsQ", "review_count": 63, "categories": [{"alias": "newamerican", "title": "American (New)"}, {"alias": "seafood", "title": "Seafood"}, {"alias": "cocktailbars", "title": "Cocktail Bars"}], "rating": 4.0, "coordinates": {"latitude": 37.415568, "longitude": -79.143935}, "transactions": [], "price": "$$", "location": {"address1": "712 Church St", "address2": "", "address3": null, "city": "Lynchburg", "zip_code": "24504", "country": "US", "state": "VA", "display_address": ["712 Church St", "Lynchburg, VA 24504"]}, "phone": "+14346164425", "display_phone": "(434) 616-4425", "distance": 5330.763154962325}, {"id": "SS_-db2UHgGBJOYlI2mB2A", "alias": "bootleggers-lynchburg", "name": "Bootleggers", "image_url": "https://s3-media2.fl.yelpcdn.com/bphoto/TVLVV406ep939R4xfLdb-g/o.jpg", "is_closed": false, "url": "https://www.yelp.com/biz/bootleggers-lynchburg?adjust_creative=6H8lmVuwW0ASiCP-qa0vsQ&utm_campaign=yelp_api_v3&utm_medium=api_v3_business_search&utm_source=6H8lmVuwW0ASiCP-qa0vsQ", "review_count": 244, "categories": [{"alias": "burgers", "title": "Burgers"}, {"alias": "beerbar", "title": "Beer Bar"}, {"alias": "sandwiches", "title": "Sandwiches"}], "rating": 4.0, "coordinates": {"latitude": 37.4118699, "longitude": -79.1385229}, "transactions": ["delivery"], "price": "$$", "location": {"address1": "50 13th St", "address2": null, "address3": "", "city": "Lynchburg", "zip_code": "24504", "country": "US", "state": "VA", "display_address": ["50 13th St", "Lynchburg, VA 24504"]}, "phone": "+14343334273", "display_phone": "(434) 333-4273", "distance": 5535.666716339064}, {"id": "AdFTene14NiS6dqcADN9Vw", "alias": "new-london-steak-house-forest-2", "name": "New London Steak House", "image_url": "https://s3-media3.fl.yelpcdn.com/bphoto/8QlAtqSHCcpbHOxTdG1Elg/o.jpg", "is_closed": false, "url": "https://www.yelp.com/biz/new-london-steak-house-forest-2?adjust_creative=6H8lmVuwW0ASiCP-qa0vsQ&utm_campaign=yelp_api_v3&utm_medium=api_v3_business_search&utm_source=6H8lmVuwW0ASiCP-qa0vsQ", "review_count": 58, "categories": [{"alias": "steak", "title": "Steakhouses"}, {"alias": "salad", "title": "Salad"}, {"alias": "seafood", "title": "Seafood"}], "rating": 3.5, "coordinates": {"latitude": 37.2707480192184, "longitude": -79.3433348089457}, "transactions": [], "price": "$$", "location": {"address1": "4312 New London Rd", "address2": "", "address3": "", "city": "Forest", "zip_code": "24551", "country": "US", "state": "VA", "display_address": ["4312 New London Rd", "Forest, VA 24551"]}, "phone": "+14345253826", "display_phone": "(434) 525-3826", "distance": 18548.7814468797}, {"id": "f_dZkF05GQNuCckg3UkYYA", "alias": "charleys-restaurant-lynchburg-2", "name": "Charley's Restaurant", "image_url": "https://s3-media4.fl.yelpcdn.com/bphoto/TURaw5RL1ah5Pkce_guqcg/o.jpg", "is_closed": false, "url": "https://www.yelp.com/biz/charleys-restaurant-lynchburg-2?adjust_creative=6H8lmVuwW0ASiCP-qa0vsQ&utm_campaign=yelp_api_v3&utm_medium=api_v3_business_search&utm_source=6H8lmVuwW0ASiCP-qa0vsQ", "review_count": 35, "categories": [{"alias": "newamerican", "title": "American (New)"}, {"alias": "burgers", "title": "Burgers"}, {"alias": "sandwiches", "title": "Sandwiches"}], "rating": 3.5, "coordinates": {"latitude": 37.37498, "longitude": -79.21525}, "transactions": ["delivery"], "price": "$$", "location": {"address1": "707 Graves Mill Rd", "address2": "", "address3": "", "city": "Lynchburg", "zip_code": "24502", "country": "US", "state": "VA", "display_address": ["707 Graves Mill Rd", "Lynchburg, VA 24502"]}, "phone": "+14342375988", "display_phone": "(434) 237-5988", "distance": 2463.7721311822743}, {"id": "Rzx6wxbpZGX3WWlGeebN_A", "alias": "the-depot-grille-lynchburg", "name": "The Depot Grille", "image_url": "https://s3-media1.fl.yelpcdn.com/bphoto/dx8d7VdukKEARXSCR4JjlA/o.jpg", "is_closed": false, "url": "https://www.yelp.com/biz/the-depot-grille-lynchburg?adjust_creative=6H8lmVuwW0ASiCP-qa0vsQ&utm_campaign=yelp_api_v3&utm_medium=api_v3_business_search&utm_source=6H8lmVuwW0ASiCP-qa0vsQ", "review_count": 165, "categories": [{"alias": "steak", "title": "Steakhouses"}, {"alias": "seafood", "title": "Seafood"}], "rating": 4.0, "coordinates": {"latitude": 37.4156608581543, "longitude": -79.1393890380859}, "transactions": ["pickup", "delivery"], "price": "$$", "location": {"address1": "10 Ninth St", "address2": "", "address3": "", "city": "Lynchburg", "zip_code": "24504", "country": "US", "state": "VA", "display_address": ["10 Ninth St", "Lynchburg, VA 24504"]}, "phone": "+14348464464", "display_phone": "(434) 846-4464", "distance": 5657.389850422084}, {"id": "Z9bRWs3HQeOLQUs7ClwJzw", "alias": "isabellas-italian-trattoria-lynchburg", "name": "Isabella's Italian Trattoria", "image_url": "https://s3-media2.fl.yelpcdn.com/bphoto/A4SRodj58bsSU7ztDppZvg/o.jpg", "is_closed": false, "url": "https://www.yelp.com/biz/isabellas-italian-trattoria-lynchburg?adjust_creative=6H8lmVuwW0ASiCP-qa0vsQ&utm_campaign=yelp_api_v3&utm_medium=api_v3_business_search&utm_source=6H8lmVuwW0ASiCP-qa0vsQ", "review_count": 135, "categories": [{"alias": "italian", "title": "Italian"}, {"alias": "wine_bars", "title": "Wine Bars"}], "rating": 4.0, "coordinates": {"latitude": 37.446879, "longitude": -79.219702}, "transactions": ["delivery"], "price": "$$", "location": {"address1": "4925 Boonsboro Rd", "address2": "", "address3": "Boonsboro Shopping Center", "city": "Lynchburg", "zip_code": "24503", "country": "US", "state": "VA", "display_address": ["4925 Boonsboro Rd", "Boonsboro Shopping Center", "Lynchburg, VA 24503"]}, "phone": "+14343851660", "display_phone": "(434) 385-1660", "distance": 7297.304681829976}, {"id": "ygkE1OL49piQFyXzLH6iTg", "alias": "logans-roadhouse-lynchburg-3", "name": "Logan's Roadhouse", "image_url": "https://s3-media4.fl.yelpcdn.com/bphoto/YNU14Mln9a2Xt6Iw5rMjLg/o.jpg", "is_closed": false, "url": "https://www.yelp.com/biz/logans-roadhouse-lynchburg-3?adjust_creative=6H8lmVuwW0ASiCP-qa0vsQ&utm_campaign=yelp_api_v3&utm_medium=api_v3_business_search&utm_source=6H8lmVuwW0ASiCP-qa0vsQ", "review_count": 73, "categories": [{"alias": "steak", "title": "Steakhouses"}, {"alias": "tradamerican", "title": "American (Traditional)"}, {"alias": "bbq", "title": "Barbeque"}], "rating": 2.5, "coordinates": {"latitude": 37.34361, "longitude": -79.190092}, "transactions": ["pickup", "delivery"], "price": "$$", "location": {"address1": "4046 Wards Rd", "address2": "", "address3": "", "city": "Lynchburg", "zip_code": "24502", "country": "US", "state": "VA", "display_address": ["4046 Wards Rd", "Lynchburg, VA 24502"]}, "phone": "+14348320377", "display_phone": "(434) 832-0377", "distance": 4646.230125745087}, {"id": "HIO3Dz0yv3qNObmXov-Org", "alias": "shakers-restaurant-lynchburg", "name": "Shakers Restaurant", "image_url": "https://s3-media3.fl.yelpcdn.com/bphoto/vUcH0f3U54z9rt2mzkyo8w/o.jpg", "is_closed": false, "url": "https://www.yelp.com/biz/shakers-restaurant-lynchburg?adjust_creative=6H8lmVuwW0ASiCP-qa0vsQ&utm_campaign=yelp_api_v3&utm_medium=api_v3_business_search&utm_source=6H8lmVuwW0ASiCP-qa0vsQ", "review_count": 102, "categories": [{"alias": "burgers", "title": "Burgers"}, {"alias": "tradamerican", "title": "American (Traditional)"}, {"alias": "sandwiches", "title": "Sandwiches"}], "rating": 3.5, "coordinates": {"latitude": 37.3671951293945, "longitude": -79.1756439208984}, "transactions": ["delivery"], "price": "$$", "location": {"address1": "3401 Candlers Mountain Rd", "address2": "", "address3": "", "city": "Lynchburg", "zip_code": "24501", "country": "US", "state": "VA", "display_address": ["3401 Candlers Mountain Rd", "Lynchburg, VA 24501"]}, "phone": "+14348477425", "display_phone": "(434) 847-7425", "distance": 2443.847109158443}, {"id": "nWOaLAxkqEZ57cNOVZv8kA", "alias": "grazianos-forest", "name": "Graziano's", "image_url": "https://s3-media2.fl.yelpcdn.com/bphoto/GCYbxna0s3FmYgj2e8Qztw/o.jpg", "is_closed": false, "url": "https://www.yelp.com/biz/grazianos-forest?adjust_creative=6H8lmVuwW0ASiCP-qa0vsQ&utm_campaign=yelp_api_v3&utm_medium=api_v3_business_search&utm_source=6H8lmVuwW0ASiCP-qa0vsQ", "review_count": 58, "categories": [{"alias": "italian", "title": "Italian"}, {"alias": "pizza", "title": "Pizza"}], "rating": 4.5, "coordinates": {"latitude": 37.3653512606083, "longitude": -79.2966060340405}, "transactions": ["pickup", "delivery"], "price": "$", "location": {"address1": "14805 Forest Rd", "address2": "Ste 105", "address3": "", "city": "Forest", "zip_code": "24551", "country": "US", "state": "VA", "display_address": ["14805 Forest Rd", "Ste 105", "Forest, VA 24551"]}, "phone": "+14345259510", "display_phone": "(434) 525-9510", "distance": 9609.017245210453}, {"id": "fB8reOO5g0S93-7saXVOkg", "alias": "dish-lynchburg", "name": "Dish", "image_url": "https://s3-media1.fl.yelpcdn.com/bphoto/Eax3PL4Ynh8sKkIjEnB3Dw/o.jpg", "is_closed": false, "url": "https://www.yelp.com/biz/dish-lynchburg?adjust_creative=6H8lmVuwW0ASiCP-qa0vsQ&utm_campaign=yelp_api_v3&utm_medium=api_v3_business_search&utm_source=6H8lmVuwW0ASiCP-qa0vsQ", "review_count": 106, "categories": [{"alias": "newamerican", "title": "American (New)"}, {"alias": "bars", "title": "Bars"}, {"alias": "seafood", "title": "Seafood"}], "rating": 4.0, "coordinates": {"latitude": 37.41271, "longitude": -79.14004}, "transactions": ["delivery"], "price": "$$", "location": {"address1": "1120 Main St", "address2": "Ste A", "address3": null, "city": "Lynchburg", "zip_code": "24504", "country": "US", "state": "VA", "display_address": ["1120 Main St", "Ste A", "Lynchburg, VA 24504"]}, "phone": "+14345280070", "display_phone": "(434) 528-0070", "distance": 5410.817796057701}, {"id": "ljJIhQ6lH1w5unoBJMzzHg", "alias": "hill-city-pub-lynchburg", "name": "Hill City Pub", "image_url": "https://s3-media3.fl.yelpcdn.com/bphoto/tMm_k2EFhPEm_qpNP3ehSg/o.jpg", "is_closed": false, "url": "https://www.yelp.com/biz/hill-city-pub-lynchburg?adjust_creative=6H8lmVuwW0ASiCP-qa0vsQ&utm_campaign=yelp_api_v3&utm_medium=api_v3_business_search&utm_source=6H8lmVuwW0ASiCP-qa0vsQ", "review_count": 43, "categories": [{"alias": "pubs", "title": "Pubs"}, {"alias": "hotdog", "title": "Hot Dogs"}, {"alias": "cocktailbars", "title": "Cocktail Bars"}], "rating": 4.0, "coordinates": {"latitude": 37.346466472914244, "longitude": -79.1863974}, "transactions": ["delivery", "pickup"], "location": {"address1": "4017 Wards Rd", "address2": null, "address3": "", "city": "Lynchburg", "zip_code": "24502", "country": "US", "state": "VA", "display_address": ["4017 Wards Rd", "Lynchburg, VA 24502"]}, "phone": "+14345829001", "display_phone": "(434) 582-9001", "distance": 4345.814423400826}, {"id": "nv3nbAIcpFt0LFuaFCB5UA", "alias": "thai-99-kitchen-lynchburg", "name": "Thai 99 Kitchen", "image_url": "https://s3-media1.fl.yelpcdn.com/bphoto/LXAaNPTogLXp4hEGEUpOdQ/o.jpg", "is_closed": false, "url": "https://www.yelp.com/biz/thai-99-kitchen-lynchburg?adjust_creative=6H8lmVuwW0ASiCP-qa0vsQ&utm_campaign=yelp_api_v3&utm_medium=api_v3_business_search&utm_source=6H8lmVuwW0ASiCP-qa0vsQ", "review_count": 79, "categories": [{"alias": "thai", "title": "Thai"}, {"alias": "desserts", "title": "Desserts"}, {"alias": "noodles", "title": "Noodles"}], "rating": 4.0, "coordinates": {"latitude": 37.40298, "longitude": -79.16852}, "transactions": ["delivery", "pickup"], "price": "$$", "location": {"address1": "21 Wadsworth St", "address2": "Ste 100", "address3": "", "city": "Lynchburg", "zip_code": "24501", "country": "US", "state": "VA", "display_address": ["21 Wadsworth St", "Ste 100", "Lynchburg, VA 24501"]}, "phone": "+14345282855", "display_phone": "(434) 528-2855", "distance": 2776.289832468487}, {"id": "maP2_y64dgvC0-vxRLPmig", "alias": "county-smoak-lynchburg-2", "name": "County Smoak", "image_url": "https://s3-media3.fl.yelpcdn.com/bphoto/2T8-T5bxgcBrf9Sya3H_sg/o.jpg", "is_closed": false, "url": "https://www.yelp.com/biz/county-smoak-lynchburg-2?adjust_creative=6H8lmVuwW0ASiCP-qa0vsQ&utm_campaign=yelp_api_v3&utm_medium=api_v3_business_search&utm_source=6H8lmVuwW0ASiCP-qa0vsQ", "review_count": 85, "categories": [{"alias": "bbq", "title": "Barbeque"}, {"alias": "sandwiches", "title": "Sandwiches"}], "rating": 5.0, "coordinates": {"latitude": 37.358911123677835, "longitude": -79.21767080798652}, "transactions": ["delivery"], "location": {"address1": "7423 Timberlake Rd", "address2": "", "address3": null, "city": "Lynchburg", "zip_code": "24502", "country": "US", "state": "VA", "display_address": ["7423 Timberlake Rd", "Lynchburg, VA 24502"]}, "phone": "+14342153311", "display_phone": "(434) 215-3311", "distance": 3781.075671354932}, {"id": "SCuhDm3MW6Q68j1VXZmkaw", "alias": "milan-indian-cuisine-lynchburg", "name": "Milan Indian Cuisine", "image_url": "https://s3-media1.fl.yelpcdn.com/bphoto/HK9X8uAZAepMQ_RXvbS04w/o.jpg", "is_closed": false, "url": "https://www.yelp.com/biz/milan-indian-cuisine-lynchburg?adjust_creative=6H8lmVuwW0ASiCP-qa0vsQ&utm_campaign=yelp_api_v3&utm_medium=api_v3_business_search&utm_source=6H8lmVuwW0ASiCP-qa0vsQ", "review_count": 141, "categories": [{"alias": "indpak", "title": "Indian"}], "rating": 4.0, "coordinates": {"latitude": 37.372877, "longitude": -79.182152}, "transactions": ["delivery", "pickup"], "price": "$$", "location": {"address1": "2124 Wards Rd", "address2": "", "address3": "", "city": "Lynchburg", "zip_code": "24502", "country": "US", "state": "VA", "display_address": ["2124 Wards Rd", "Lynchburg, VA 24502"]}, "phone": "+14342377990", "display_phone": "(434) 237-7990", "distance": 1588.57513235649}, {"id": "RU_SHtA2DaJ_ZJlBfbMuvQ", "alias": "tacos-locos-lynchburg", "name": "Tacos Locos", "image_url": "https://s3-media4.fl.yelpcdn.com/bphoto/D_Hmo0QspVzXn6eP6Do7KA/o.jpg", "is_closed": false, "url": "https://www.yelp.com/biz/tacos-locos-lynchburg?adjust_creative=6H8lmVuwW0ASiCP-qa0vsQ&utm_campaign=yelp_api_v3&utm_medium=api_v3_business_search&utm_source=6H8lmVuwW0ASiCP-qa0vsQ", "review_count": 49, "categories": [{"alias": "foodtrucks", "title": "Food Trucks"}], "rating": 5.0, "coordinates": {"latitude": 37.3770500397767, "longitude": -79.185039550066}, "transactions": ["delivery"], "price": "$", "location": {"address1": "5210 Fort Ave", "address2": "", "address3": "", "city": "Lynchburg", "zip_code": "24502", "country": "US", "state": "VA", "display_address": ["5210 Fort Ave", "Lynchburg, VA 24502"]}, "phone": "+14344265977", "display_phone": "(434) 426-5977", "distance": 1059.028730439249}, {"id": "I3vYAeiviCHNpo7R0lG6uw", "alias": "oakley-market-and-restaurant-lynchburg", "name": "Oakley Market And Restaurant", "image_url": "https://s3-media4.fl.yelpcdn.com/bphoto/335VJFpPq1J8UQTtR0Oi2w/o.jpg", "is_closed": false, "url": "https://www.yelp.com/biz/oakley-market-and-restaurant-lynchburg?adjust_creative=6H8lmVuwW0ASiCP-qa0vsQ&utm_campaign=yelp_api_v3&utm_medium=api_v3_business_search&utm_source=6H8lmVuwW0ASiCP-qa0vsQ", "review_count": 4, "categories": [{"alias": "grocery", "title": "Grocery"}, {"alias": "sandwiches", "title": "Sandwiches"}], "rating": 4.5, "coordinates": {"latitude": 37.3996276855469, "longitude": -79.1731796264648}, "transactions": ["delivery", "pickup"], "location": {"address1": "477 Oakley Ave", "address2": "", "address3": null, "city": "Lynchburg", "zip_code": "24501", "country": "US", "state": "VA", "display_address": ["477 Oakley Ave", "Lynchburg, VA 24501"]}, "phone": "+14346163441", "display_phone": "(434) 616-3441", "distance": 2221.851374041311}, {"id": "IPqmDxqKndzeOpMRw-rcQw", "alias": "suzaku-cafe-lynchburg", "name": "Suzaku Cafe", "image_url": "https://s3-media1.fl.yelpcdn.com/bphoto/biUDjVOf4G7FYEAWoxBM2A/o.jpg", "is_closed": false, "url": "https://www.yelp.com/biz/suzaku-cafe-lynchburg?adjust_creative=6H8lmVuwW0ASiCP-qa0vsQ&utm_campaign=yelp_api_v3&utm_medium=api_v3_business_search&utm_source=6H8lmVuwW0ASiCP-qa0vsQ", "review_count": 155, "categories": [{"alias": "cafes", "title": "Cafes"}, {"alias": "sushi", "title": "Sushi Bars"}, {"alias": "japanese", "title": "Japanese"}], "rating": 4.5, "coordinates": {"latitude": 37.34242, "longitude": -79.19092}, "transactions": ["delivery"], "price": "$", "location": {"address1": "120 Simons Run", "address2": "Ste G", "address3": null, "city": "Lynchburg", "zip_code": "24502", "country": "US", "state": "VA", "display_address": ["120 Simons Run", "Ste G", "Lynchburg, VA 24502"]}, "phone": "+14342008104", "display_phone": "(434) 200-8104", "distance": 4776.815189036067}, {"id": "MmBhti0wwAvLacQyLXHWLA", "alias": "rivermont-bierhaus-lynchburg", "name": "Rivermont Bierhaus", "image_url": "https://s3-media3.fl.yelpcdn.com/bphoto/br7i6H25wMuzTqvm2rPWog/o.jpg", "is_closed": false, "url": "https://www.yelp.com/biz/rivermont-bierhaus-lynchburg?adjust_creative=6H8lmVuwW0ASiCP-qa0vsQ&utm_campaign=yelp_api_v3&utm_medium=api_v3_business_search&utm_source=6H8lmVuwW0ASiCP-qa0vsQ", "review_count": 13, "categories": [{"alias": "burgers", "title": "Burgers"}, {"alias": "beerbar", "title": "Beer Bar"}], "rating": 4.0, "coordinates": {"latitude": 37.435204, "longitude": -79.171015}, "transactions": ["delivery"], "location": {"address1": "2496 Rivermont Ave", "address2": "", "address3": null, "city": "Lynchburg", "zip_code": "24503", "country": "US", "state": "VA", "display_address": ["2496 Rivermont Ave", "Lynchburg, VA 24503"]}, "phone": "+14343868767", "display_phone": "(434) 386-8767", "distance": 5807.238829264416}, {"id": "8MK3O7j5-OCG0XzvRBxCIg", "alias": "7-eleven-1046299-lynchburg", "name": "7-ELEVEN 1046299", "image_url": "https://s3-media4.fl.yelpcdn.com/bphoto/Z0jSbZlxCqqUcdW_ufj7MA/o.jpg", "is_closed": false, "url": "https://www.yelp.com/biz/7-eleven-1046299-lynchburg?adjust_creative=6H8lmVuwW0ASiCP-qa0vsQ&utm_campaign=yelp_api_v3&utm_medium=api_v3_business_search&utm_source=6H8lmVuwW0ASiCP-qa0vsQ", "review_count": 1, "categories": [{"alias": "convenience", "title": "Convenience Stores"}, {"alias": "servicestations", "title": "Gas Stations"}], "rating": 5.0, "coordinates": {"latitude": 37.34676, "longitude": -79.23376}, "transactions": ["delivery", "pickup"], "location": {"address1": "20061 Timberlake Rd", "address2": "", "address3": null, "city": "Lynchburg", "zip_code": "24502", "country": "US", "state": "VA", "display_address": ["20061 Timberlake Rd", "Lynchburg, VA 24502"]}, "phone": "", "display_phone": "", "distance": 5732.38077106961}, {"id": "zMvX92EBdzoGKoutJKiHUg", "alias": "mizumi-japanese-bistro-lynchburg", "name": "Mizumi Japanese Bistro", "image_url": "https://s3-media1.fl.yelpcdn.com/bphoto/UWVgRwz670IClPqY5WhB8g/o.jpg", "is_closed": false, "url": "https://www.yelp.com/biz/mizumi-japanese-bistro-lynchburg?adjust_creative=6H8lmVuwW0ASiCP-qa0vsQ&utm_campaign=yelp_api_v3&utm_medium=api_v3_business_search&utm_source=6H8lmVuwW0ASiCP-qa0vsQ", "review_count": 24, "categories": [{"alias": "japanese", "title": "Japanese"}, {"alias": "bubbletea", "title": "Bubble Tea"}], "rating": 4.5, "coordinates": {"latitude": 37.41247, "longitude": -79.14057}, "transactions": ["delivery", "pickup"], "location": {"address1": "1125 Main St", "address2": "", "address3": null, "city": "Lynchburg", "zip_code": "24504", "country": "US", "state": "VA", "display_address": ["1125 Main St", "Lynchburg, VA 24504"]}, "phone": "+14346166199", "display_phone": "(434) 616-6199", "distance": 5372.1501981493075}, {"id": "dZZhG9B3RiKRA2bWsbw2xg", "alias": "sheetz-lynchburg", "name": "Sheetz", "image_url": "https://s3-media1.fl.yelpcdn.com/bphoto/iX7bI4pezhfDHvsDKnpXZg/o.jpg", "is_closed": false, "url": "https://www.yelp.com/biz/sheetz-lynchburg?adjust_creative=6H8lmVuwW0ASiCP-qa0vsQ&utm_campaign=yelp_api_v3&utm_medium=api_v3_business_search&utm_source=6H8lmVuwW0ASiCP-qa0vsQ", "review_count": 3, "categories": [{"alias": "servicestations", "title": "Gas Stations"}, {"alias": "convenience", "title": "Convenience Stores"}], "rating": 4.5, "coordinates": {"latitude": 37.39642215077161, "longitude": -79.2294091}, "transactions": ["delivery"], "price": "$$", "location": {"address1": "2630 Lakeside Dr", "address2": null, "address3": null, "city": "Lynchburg", "zip_code": "24501", "country": "US", "state": "VA", "display_address": ["2630 Lakeside Dr", "Lynchburg, VA 24501"]}, "phone": "+14343165357", "display_phone": "(434) 316-5357", "distance": 3622.608387289671}, {"id": "uVcJLpEqaMtjuZOiGePZxQ", "alias": "aji-ramen-and-sushi-lynchburg", "name": "Aji Ramen & Sushi", "image_url": "https://s3-media1.fl.yelpcdn.com/bphoto/NKYDZwSZNebjxabEv55_fQ/o.jpg", "is_closed": false, "url": "https://www.yelp.com/biz/aji-ramen-and-sushi-lynchburg?adjust_creative=6H8lmVuwW0ASiCP-qa0vsQ&utm_campaign=yelp_api_v3&utm_medium=api_v3_business_search&utm_source=6H8lmVuwW0ASiCP-qa0vsQ", "review_count": 67, "categories": [{"alias": "ramen", "title": "Ramen"}, {"alias": "sushi", "title": "Sushi Bars"}, {"alias": "asianfusion", "title": "Asian Fusion"}], "rating": 3.5, "coordinates": {"latitude": 37.41467, "longitude": -79.14174}, "transactions": ["delivery", "pickup"], "location": {"address1": "908 Main St", "address2": null, "address3": "", "city": "Lynchburg", "zip_code": "24504", "country": "US", "state": "VA", "display_address": ["908 Main St", "Lynchburg, VA 24504"]}, "phone": "+14348452816", "display_phone": "(434) 845-2816", "distance": 5422.472971454855}, {"id": "YsHZgU01klIeEr3t7PyTNA", "alias": "long-mountain-grill-rustburg-2", "name": "Long Mountain Grill", "image_url": "https://s3-media1.fl.yelpcdn.com/bphoto/HQdEYkBzTzyswuq1v6scwA/o.jpg", "is_closed": false, "url": "https://www.yelp.com/biz/long-mountain-grill-rustburg-2?adjust_creative=6H8lmVuwW0ASiCP-qa0vsQ&utm_campaign=yelp_api_v3&utm_medium=api_v3_business_search&utm_source=6H8lmVuwW0ASiCP-qa0vsQ", "review_count": 10, "categories": [{"alias": "bbq", "title": "Barbeque"}], "rating": 3.0, "coordinates": {"latitude": 37.276093, "longitude": -79.09843}, "transactions": ["delivery"], "location": {"address1": "69 Barrick's Ln", "address2": "Ste A", "address3": "", "city": "Rustburg", "zip_code": "24588", "country": "US", "state": "VA", "display_address": ["69 Barrick's Ln", "Ste A", "Rustburg, VA 24588"]}, "phone": "+14343324582", "display_phone": "(434) 332-4582", "distance": 14643.817108424846}, {"id": "txGIwh2q9EqHJnH2kleX_w", "alias": "famous-anthonys-lynchburg-4", "name": "Famous Anthony's", "image_url": "https://s3-media1.fl.yelpcdn.com/bphoto/k_Cnp1fs5xtXZR9Lu4IqWw/o.jpg", "is_closed": false, "url": "https://www.yelp.com/biz/famous-anthonys-lynchburg-4?adjust_creative=6H8lmVuwW0ASiCP-qa0vsQ&utm_campaign=yelp_api_v3&utm_medium=api_v3_business_search&utm_source=6H8lmVuwW0ASiCP-qa0vsQ", "review_count": 31, "categories": [{"alias": "catering", "title": "Caterers"}], "rating": 3.0, "coordinates": {"latitude": 37.37326, "longitude": -79.18411}, "transactions": ["delivery", "pickup"], "location": {"address1": "2104 Wards Rd", "address2": null, "address3": null, "city": "Lynchburg", "zip_code": "24502", "country": "US", "state": "VA", "display_address": ["2104 Wards Rd", "Lynchburg, VA 24502"]}, "phone": "+14344556950", "display_phone": "(434) 455-6950", "distance": 1480.3662503942696}, {"id": "yzV1O2WgngZt7RtmDrqu0w", "alias": "jts-grill-madison-heights", "name": "JT's Grill", "image_url": "https://s3-media3.fl.yelpcdn.com/bphoto/8IH7hl0hPUvx9voD1qkz9A/o.jpg", "is_closed": false, "url": "https://www.yelp.com/biz/jts-grill-madison-heights?adjust_creative=6H8lmVuwW0ASiCP-qa0vsQ&utm_campaign=yelp_api_v3&utm_medium=api_v3_business_search&utm_source=6H8lmVuwW0ASiCP-qa0vsQ", "review_count": 6, "categories": [{"alias": "burgers", "title": "Burgers"}, {"alias": "tradamerican", "title": "American (Traditional)"}], "rating": 4.0, "coordinates": {"latitude": 37.46396, "longitude": -79.1192}, "transactions": ["delivery"], "location": {"address1": "4154 US-29 Bus", "address2": "", "address3": null, "city": "Madison Heights", "zip_code": "24572", "country": "US", "state": "VA", "display_address": ["4154 US-29 Bus", "Madison Heights, VA 24572"]}, "phone": "+14346163994", "display_phone": "(434) 616-3994", "distance": 10791.172376054314}, {"id": "trqMCI3AU_hWq9XrgBPwpA", "alias": "market-at-main-lynchburg", "name": "Market At Main", "image_url": "https://s3-media4.fl.yelpcdn.com/bphoto/i1-by7k-wJjwPXDDz-e-IA/o.jpg", "is_closed": false, "url": "https://www.yelp.com/biz/market-at-main-lynchburg?adjust_creative=6H8lmVuwW0ASiCP-qa0vsQ&utm_campaign=yelp_api_v3&utm_medium=api_v3_business_search&utm_source=6H8lmVuwW0ASiCP-qa0vsQ", "review_count": 291, "categories": [{"alias": "breakfast_brunch", "title": "Breakfast & Brunch"}, {"alias": "tradamerican", "title": "American (Traditional)"}, {"alias": "bars", "title": "Bars"}], "rating": 4.0, "coordinates": {"latitude": 37.4147796630859, "longitude": -79.1418304443359}, "transactions": ["delivery", "pickup"], "price": "$$", "location": {"address1": "904 Main St", "address2": "", "address3": "", "city": "Lynchburg", "zip_code": "24504", "country": "US", "state": "VA", "display_address": ["904 Main St", "Lynchburg, VA 24504"]}, "phone": "+14348479040", "display_phone": "(434) 847-9040", "distance": 5420.072031785786}, {"id": "QatUSTDMYx9wzwRpvkNwXQ", "alias": "mellow-mushroom-lynchburg-lynchburg", "name": "Mellow Mushroom - Lynchburg", "image_url": "https://s3-media2.fl.yelpcdn.com/bphoto/SDLjVDvlzAJRu3hAL30K9g/o.jpg", "is_closed": false, "url": "https://www.yelp.com/biz/mellow-mushroom-lynchburg-lynchburg?adjust_creative=6H8lmVuwW0ASiCP-qa0vsQ&utm_campaign=yelp_api_v3&utm_medium=api_v3_business_search&utm_source=6H8lmVuwW0ASiCP-qa0vsQ", "review_count": 39, "categories": [{"alias": "pizza", "title": "Pizza"}], "rating": 3.5, "coordinates": {"latitude": 37.339421, "longitude": -79.224982}, "transactions": ["delivery", "pickup"], "location": {"address1": "1220 Greenview Dr", "address2": "", "address3": null, "city": "Lynchburg", "zip_code": "24502", "country": "US", "state": "VA", "display_address": ["1220 Greenview Dr", "Lynchburg, VA 24502"]}, "phone": "+14343002335", "display_phone": "(434) 300-2335", "distance": 5935.942495487269}, {"id": "-Ya6G0zIDGv-IV9x_ULP2A", "alias": "my-dog-dukes-diner-lynchburg", "name": "My Dog Duke's Diner", "image_url": "https://s3-media4.fl.yelpcdn.com/bphoto/aGl0l4yDQIMtVINzzdYSqQ/o.jpg", "is_closed": false, "url": "https://www.yelp.com/biz/my-dog-dukes-diner-lynchburg?adjust_creative=6H8lmVuwW0ASiCP-qa0vsQ&utm_campaign=yelp_api_v3&utm_medium=api_v3_business_search&utm_source=6H8lmVuwW0ASiCP-qa0vsQ", "review_count": 249, "categories": [{"alias": "breakfast_brunch", "title": "Breakfast & Brunch"}, {"alias": "diners", "title": "Diners"}], "rating": 4.5, "coordinates": {"latitude": 37.4143820880554, "longitude": -79.1405065556153}, "transactions": ["delivery"], "price": "$$", "location": {"address1": "1007 Commerce St", "address2": "", "address3": null, "city": "Lynchburg", "zip_code": "24504", "country": "US", "state": "VA", "display_address": ["1007 Commerce St", "Lynchburg, VA 24504"]}, "phone": "+14348498868", "display_phone": "(434) 849-8868", "distance": 5490.932878838228}, {"id": "v8OUO4Kn88lMxUm4afYB_g", "alias": "lucky-store-lynchburg", "name": "Lucky Store", "image_url": "https://s3-media2.fl.yelpcdn.com/bphoto/wjlLu2h3EjvqinR4WFlMBA/o.jpg", "is_closed": false, "url": "https://www.yelp.com/biz/lucky-store-lynchburg?adjust_creative=6H8lmVuwW0ASiCP-qa0vsQ&utm_campaign=yelp_api_v3&utm_medium=api_v3_business_search&utm_source=6H8lmVuwW0ASiCP-qa0vsQ", "review_count": 2, "categories": [{"alias": "convenience", "title": "Convenience Stores"}], "rating": 5.0, "coordinates": {"latitude": 37.4164587053864, "longitude": -79.14872606958862}, "transactions": ["delivery", "pickup"], "location": {"address1": "527 Fifth St", "address2": "", "address3": null, "city": "Lynchburg", "zip_code": "24504", "country": "US", "state": "VA", "display_address": ["527 Fifth St", "Lynchburg, VA 24504"]}, "phone": "+14345289009", "display_phone": "(434) 528-9009", "distance": 5075.870660840131}, {"id": "uZhVKDgaTX50QXlRYIWrUA", "alias": "kenko-hibachi-lynchburg", "name": "Kenko Hibachi", "image_url": "https://s3-media3.fl.yelpcdn.com/bphoto/CtFjhojPllvZNfoYNbbWvA/o.jpg", "is_closed": false, "url": "https://www.yelp.com/biz/kenko-hibachi-lynchburg?adjust_creative=6H8lmVuwW0ASiCP-qa0vsQ&utm_campaign=yelp_api_v3&utm_medium=api_v3_business_search&utm_source=6H8lmVuwW0ASiCP-qa0vsQ", "review_count": 40, "categories": [{"alias": "japanese", "title": "Japanese"}], "rating": 4.0, "coordinates": {"latitude": 37.34013, "longitude": -79.22459}, "transactions": ["delivery", "pickup"], "location": {"address1": "112 Cornerstone St", "address2": "Unit C", "address3": "", "city": "Lynchburg", "zip_code": "24502", "country": "US", "state": "VA", "display_address": ["112 Cornerstone St", "Unit C", "Lynchburg, VA 24502"]}, "phone": "+14345343043", "display_phone": "(434) 534-3043", "distance": 5850.00288326736}, {"id": "NI9QEofPmGQJycpLLmAmQA", "alias": "taste-of-philly-lynchburg-2", "name": "Taste of Philly", "image_url": "https://s3-media4.fl.yelpcdn.com/bphoto/sXhTOzrKiELG8kNj6YR6kw/o.jpg", "is_closed": false, "url": "https://www.yelp.com/biz/taste-of-philly-lynchburg-2?adjust_creative=6H8lmVuwW0ASiCP-qa0vsQ&utm_campaign=yelp_api_v3&utm_medium=api_v3_business_search&utm_source=6H8lmVuwW0ASiCP-qa0vsQ", "review_count": 108, "categories": [{"alias": "cheesesteaks", "title": "Cheesesteaks"}, {"alias": "burgers", "title": "Burgers"}, {"alias": "sandwiches", "title": "Sandwiches"}], "rating": 4.5, "coordinates": {"latitude": 37.4089546203613, "longitude": -79.1625671386719}, "transactions": ["delivery"], "price": "$", "location": {"address1": "1901 B Memorial Ave", "address2": null, "address3": null, "city": "Lynchburg", "zip_code": "24501", "country": "US", "state": "VA", "display_address": ["1901 B Memorial Ave", "Lynchburg, VA 24501"]}, "phone": "+14348477770", "display_phone": "(434) 847-7770", "distance": 3625.0657958066745}, {"id": "b2VtmPjNgcPMrcn3uNkN0w", "alias": "el-jefe-taqueria-garaje-lynchburg-4", "name": "El Jefe Taqueria Garaje", "image_url": "https://s3-media2.fl.yelpcdn.com/bphoto/208fNXxDyQybpGZuu_MugQ/o.jpg", "is_closed": false, "url": "https://www.yelp.com/biz/el-jefe-taqueria-garaje-lynchburg-4?adjust_creative=6H8lmVuwW0ASiCP-qa0vsQ&utm_campaign=yelp_api_v3&utm_medium=api_v3_business_search&utm_source=6H8lmVuwW0ASiCP-qa0vsQ", "review_count": 215, "categories": [{"alias": "cocktailbars", "title": "Cocktail Bars"}, {"alias": "mexican", "title": "Mexican"}], "rating": 4.0, "coordinates": {"latitude": 37.41258, "longitude": -79.13866}, "transactions": ["delivery"], "price": "$$", "location": {"address1": "1214 Commerce St", "address2": "", "address3": "", "city": "Lynchburg", "zip_code": "24504", "country": "US", "state": "VA", "display_address": ["1214 Commerce St", "Lynchburg, VA 24504"]}, "phone": "+14343334317", "display_phone": "(434) 333-4317", "distance": 5511.420585640036}, {"id": "mS970gIE7EMaOTu0UukS4Q", "alias": "sawa-japanese-steakhouse-forest", "name": "Sawa Japanese Steakhouse", "image_url": "https://s3-media1.fl.yelpcdn.com/bphoto/qGYI1HU1fovBhUvYU-kwtQ/o.jpg", "is_closed": false, "url": "https://www.yelp.com/biz/sawa-japanese-steakhouse-forest?adjust_creative=6H8lmVuwW0ASiCP-qa0vsQ&utm_campaign=yelp_api_v3&utm_medium=api_v3_business_search&utm_source=6H8lmVuwW0ASiCP-qa0vsQ", "review_count": 61, "categories": [{"alias": "japanese", "title": "Japanese"}, {"alias": "steak", "title": "Steakhouses"}, {"alias": "bubbletea", "title": "Bubble Tea"}], "rating": 4.5, "coordinates": {"latitude": 37.36857, "longitude": -79.30011}, "transactions": ["delivery", "pickup"], "location": {"address1": "14595 Forest Rd", "address2": null, "address3": "", "city": "Forest", "zip_code": "24551", "country": "US", "state": "VA", "display_address": ["14595 Forest Rd", "Forest, VA 24551"]}, "phone": "+14345252888", "display_phone": "(434) 525-2888", "distance": 9841.933962085697}, {"id": "sFNasWoZLAZEsxK6qkpsgw", "alias": "lakeside-deli-and-mart-lynchburg-2", "name": "Lakeside Deli & Mart", "image_url": "", "is_closed": false, "url": "https://www.yelp.com/biz/lakeside-deli-and-mart-lynchburg-2?adjust_creative=6H8lmVuwW0ASiCP-qa0vsQ&utm_campaign=yelp_api_v3&utm_medium=api_v3_business_search&utm_source=6H8lmVuwW0ASiCP-qa0vsQ", "review_count": 1, "categories": [{"alias": "burgers", "title": "Burgers"}, {"alias": "convenience", "title": "Convenience Stores"}, {"alias": "sandwiches", "title": "Sandwiches"}], "rating": 5.0, "coordinates": {"latitude": 37.399992, "longitude": -79.204934}, "transactions": ["pickup", "delivery"], "location": {"address1": "2126 Lakeside Dr", "address2": null, "address3": null, "city": "Lynchburg", "zip_code": "24501", "country": "US", "state": "VA", "display_address": ["2126 Lakeside Dr", "Lynchburg, VA 24501"]}, "phone": "+14343195498", "display_phone": "(434) 319-5498", "distance": 2050.0642956544903}, {"id": "YFX5uqs8woDUVQAzvVss5g", "alias": "chilis-lynchburg", "name": "Chili's", "image_url": "https://s3-media1.fl.yelpcdn.com/bphoto/KJ_CLDjYK0nDtNhAESd_JQ/o.jpg", "is_closed": false, "url": "https://www.yelp.com/biz/chilis-lynchburg?adjust_creative=6H8lmVuwW0ASiCP-qa0vsQ&utm_campaign=yelp_api_v3&utm_medium=api_v3_business_search&utm_source=6H8lmVuwW0ASiCP-qa0vsQ", "review_count": 88, "categories": [{"alias": "tex-mex", "title": "Tex-Mex"}, {"alias": "bars", "title": "Bars"}, {"alias": "tradamerican", "title": "American (Traditional)"}], "rating": 2.5, "coordinates": {"latitude": 37.3337009522351, "longitude": -79.1913133333424}, "transactions": ["restaurant_reservation", "pickup", "delivery"], "price": "$$", "location": {"address1": "15147 Wards Rd", "address2": "", "address3": null, "city": "Lynchburg", "zip_code": "24502", "country": "US", "state": "VA", "display_address": ["15147 Wards Rd", "Lynchburg, VA 24502"]}, "phone": "+14342371252", "display_phone": "(434) 237-1252", "distance": 5747.772485285293}, {"id": "UdjQu9SBLQAUUbxt3WPRrQ", "alias": "sheetz-lynchburg-5", "name": "Sheetz", "image_url": "https://s3-media1.fl.yelpcdn.com/bphoto/dNz8vqagEBadAhcbiLQETw/o.jpg", "is_closed": false, "url": "https://www.yelp.com/biz/sheetz-lynchburg-5?adjust_creative=6H8lmVuwW0ASiCP-qa0vsQ&utm_campaign=yelp_api_v3&utm_medium=api_v3_business_search&utm_source=6H8lmVuwW0ASiCP-qa0vsQ", "review_count": 2, "categories": [{"alias": "convenience", "title": "Convenience Stores"}, {"alias": "servicestations", "title": "Gas Stations"}], "rating": 2.0, "coordinates": {"latitude": 37.3512228, "longitude": -79.22751486035668}, "transactions": ["delivery"], "location": {"address1": "7900 Timberlake Rd", "address2": "", "address3": null, "city": "Lynchburg", "zip_code": "24502", "country": "US", "state": "VA", "display_address": ["7900 Timberlake Rd", "Lynchburg, VA 24502"]}, "phone": "+14345343255", "display_phone": "(434) 534-3255", "distance": 4994.653772767689}, {"id": "wQHbWzt3Z4agc81LPNVD1g", "alias": "milanos-enoteca-and-italian-restaurant-lynchburg", "name": "Milano's Enoteca & Italian Restaurant", "image_url": "https://s3-media4.fl.yelpcdn.com/bphoto/okwvGa5gmdukvSP2attuAA/o.jpg", "is_closed": false, "url": "https://www.yelp.com/biz/milanos-enoteca-and-italian-restaurant-lynchburg?adjust_creative=6H8lmVuwW0ASiCP-qa0vsQ&utm_campaign=yelp_api_v3&utm_medium=api_v3_business_search&utm_source=6H8lmVuwW0ASiCP-qa0vsQ", "review_count": 44, "categories": [{"alias": "italian", "title": "Italian"}], "rating": 3.5, "coordinates": {"latitude": 37.4445059, "longitude": -79.2059087}, "transactions": ["delivery"], "price": "$$", "location": {"address1": "4327 Boonsboro Rd", "address2": "Ste 7", "address3": "", "city": "Lynchburg", "zip_code": "24503", "country": "US", "state": "VA", "display_address": ["4327 Boonsboro Rd", "Ste 7", "Lynchburg, VA 24503"]}, "phone": "+14343843400", "display_phone": "(434) 384-3400", "distance": 6559.790173259562}, {"id": "Wn0rT5JomP0djI2Orp2R9g", "alias": "mother-natures-soul-food-vegan-restaurant-no-title", "name": "Mother Natures Soul Food Vegan Restaurant", "image_url": "", "is_closed": false, "url": "https://www.yelp.com/biz/mother-natures-soul-food-vegan-restaurant-no-title?adjust_creative=6H8lmVuwW0ASiCP-qa0vsQ&utm_campaign=yelp_api_v3&utm_medium=api_v3_business_search&utm_source=6H8lmVuwW0ASiCP-qa0vsQ", "review_count": 2, "categories": [{"alias": "soulfood", "title": "Soul Food"}], "rating": 3.0, "coordinates": {"latitude": 37.39882, "longitude": -79.2093}, "transactions": [], "location": {"address1": "2225 Lakeside Dr", "address2": null, "address3": "", "city": "Lynchburg", "zip_code": "24501", "country": "US", "state": "VA", "display_address": ["2225 Lakeside Dr", "Lynchburg, VA 24501"]}, "phone": "+14343851006", "display_phone": "(434) 385-1006", "distance": 2215.6505660283274}, {"id": "Dl6B6jbh-t6lrheIVBZ0LA", "alias": "arbys-lynchburg-2", "name": "Arby's", "image_url": "https://s3-media1.fl.yelpcdn.com/bphoto/uOm57dXZnOLToDGQf9_YbQ/o.jpg", "is_closed": false, "url": "https://www.yelp.com/biz/arbys-lynchburg-2?adjust_creative=6H8lmVuwW0ASiCP-qa0vsQ&utm_campaign=yelp_api_v3&utm_medium=api_v3_business_search&utm_source=6H8lmVuwW0ASiCP-qa0vsQ", "review_count": 7, "categories": [{"alias": "hotdogs", "title": "Fast Food"}, {"alias": "sandwiches", "title": "Sandwiches"}], "rating": 2.5, "coordinates": {"latitude": 37.3704491, "longitude": -79.1823425}, "transactions": ["pickup", "delivery"], "price": "$", "location": {"address1": "2806 Candlers Mountain Rd", "address2": "", "address3": "", "city": "Lynchburg", "zip_code": "24502", "country": "US", "state": "VA", "display_address": ["2806 Candlers Mountain Rd", "Lynchburg, VA 24502"]}, "phone": "+14342374202", "display_phone": "(434) 237-4202", "distance": 1804.1303338388132}, {"id": "SDMLMK0-TbmMzZYRQ32-og", "alias": "tokyo-japanese-express-lynchburg", "name": "Tokyo Japanese Express", "image_url": "https://s3-media2.fl.yelpcdn.com/bphoto/NEDqb_n6QJBox0CoBfcB-w/o.jpg", "is_closed": false, "url": "https://www.yelp.com/biz/tokyo-japanese-express-lynchburg?adjust_creative=6H8lmVuwW0ASiCP-qa0vsQ&utm_campaign=yelp_api_v3&utm_medium=api_v3_business_search&utm_source=6H8lmVuwW0ASiCP-qa0vsQ", "review_count": 10, "categories": [{"alias": "japanese", "title": "Japanese"}], "rating": 3.5, "coordinates": {"latitude": 37.3527718, "longitude": -79.2261887}, "transactions": ["delivery"], "price": "$", "location": {"address1": "7807 Timberlake Rd", "address2": "", "address3": "", "city": "Lynchburg", "zip_code": "24502", "country": "US", "state": "VA", "display_address": ["7807 Timberlake Rd", "Lynchburg, VA 24502"]}, "phone": "+14348328088", "display_phone": "(434) 832-8088", "distance": 4771.61289331321}, {"id": "XV31AqraNqBrtq-TxwdflQ", "alias": "la-villa-lynchburg-2", "name": "La Villa", "image_url": "https://s3-media3.fl.yelpcdn.com/bphoto/qis22N4BZBJcb1Ng2AetgQ/o.jpg", "is_closed": false, "url": "https://www.yelp.com/biz/la-villa-lynchburg-2?adjust_creative=6H8lmVuwW0ASiCP-qa0vsQ&utm_campaign=yelp_api_v3&utm_medium=api_v3_business_search&utm_source=6H8lmVuwW0ASiCP-qa0vsQ", "review_count": 113, "categories": [{"alias": "italian", "title": "Italian"}, {"alias": "hotdogs", "title": "Fast Food"}, {"alias": "salad", "title": "Salad"}], "rating": 4.0, "coordinates": {"latitude": 37.3484620729755, "longitude": -79.2320870150822}, "transactions": ["pickup", "delivery"], "price": "$$", "location": {"address1": "8109 Timberlake Rd", "address2": "", "address3": "", "city": "Lynchburg", "zip_code": "24502", "country": "US", "state": "VA", "display_address": ["8109 Timberlake Rd", "Lynchburg, VA 24502"]}, "phone": "+14345824700", "display_phone": "(434) 582-4700", "distance": 5395.693212036789}, {"id": "kmPwgNu0pnhIxCriy3iU6w", "alias": "stoney-badger-tavern-lynchburg", "name": "Stoney Badger Tavern", "image_url": "https://s3-media4.fl.yelpcdn.com/bphoto/5WE15waJRHdhQYCaSWOTWw/o.jpg", "is_closed": false, "url": "https://www.yelp.com/biz/stoney-badger-tavern-lynchburg?adjust_creative=6H8lmVuwW0ASiCP-qa0vsQ&utm_campaign=yelp_api_v3&utm_medium=api_v3_business_search&utm_source=6H8lmVuwW0ASiCP-qa0vsQ", "review_count": 51, "categories": [{"alias": "chicken_wings", "title": "Chicken Wings"}, {"alias": "bars", "title": "Bars"}, {"alias": "tradamerican", "title": "American (Traditional)"}], "rating": 2.5, "coordinates": {"latitude": 37.41457, "longitude": -79.20616}, "transactions": ["pickup", "delivery"], "price": "$$", "location": {"address1": "3009 Old Forest Rd", "address2": "", "address3": "", "city": "Lynchburg", "zip_code": "24501", "country": "US", "state": "VA", "display_address": ["3009 Old Forest Rd", "Lynchburg, VA 24501"]}, "phone": "+14343843004", "display_phone": "(434) 384-3004", "distance": 3524.1216401416336}, {"id": "V04RvWUuFAPtSveQPPUn2Q", "alias": "yamato-lynchburg", "name": "Yamato", "image_url": "https://s3-media2.fl.yelpcdn.com/bphoto/xRIMis_HjsYmMg_Xv_dMPA/o.jpg", "is_closed": false, "url": "https://www.yelp.com/biz/yamato-lynchburg?adjust_creative=6H8lmVuwW0ASiCP-qa0vsQ&utm_campaign=yelp_api_v3&utm_medium=api_v3_business_search&utm_source=6H8lmVuwW0ASiCP-qa0vsQ", "review_count": 23, "categories": [{"alias": "japanese", "title": "Japanese"}, {"alias": "sushi", "title": "Sushi Bars"}], "rating": 4.0, "coordinates": {"latitude": 37.3800796967927, "longitude": -79.1826180029679}, "transactions": ["pickup", "delivery"], "price": "$$", "location": {"address1": "4915 Fort Ave", "address2": "", "address3": null, "city": "Lynchburg", "zip_code": "24502", "country": "US", "state": "VA", "display_address": ["4915 Fort Ave", "Lynchburg, VA 24502"]}, "phone": "+14342378828", "display_phone": "(434) 237-8828", "distance": 935.2689953474502}, {"id": "11VXfpESQPjZWws41y8bPA", "alias": "waterstone-pizza-lynchburg", "name": "Waterstone Pizza", "image_url": "https://s3-media4.fl.yelpcdn.com/bphoto/YgSK75olh7QVvaOhitqWWw/o.jpg", "is_closed": false, "url": "https://www.yelp.com/biz/waterstone-pizza-lynchburg?adjust_creative=6H8lmVuwW0ASiCP-qa0vsQ&utm_campaign=yelp_api_v3&utm_medium=api_v3_business_search&utm_source=6H8lmVuwW0ASiCP-qa0vsQ", "review_count": 344, "categories": [{"alias": "pizza", "title": "Pizza"}, {"alias": "bars", "title": "Bars"}, {"alias": "sandwiches", "title": "Sandwiches"}], "rating": 4.0, "coordinates": {"latitude": 37.4117801, "longitude": -79.137062}, "transactions": ["restaurant_reservation", "pickup", "delivery"], "price": "$$", "location": {"address1": "1309 Jefferson St", "address2": null, "address3": null, "city": "Lynchburg", "zip_code": "24504", "country": "US", "state": "VA", "display_address": ["1309 Jefferson St", "Lynchburg, VA 24504"]}, "phone": "+14344551515", "display_phone": "(434) 455-1515", "distance": 5567.280153336137}, {"id": "go_DzA2U8XY_9EHXG8yxEw", "alias": "eastern-gourmet-and-gifts-lynchburg", "name": "Eastern Gourmet & Gifts", "image_url": "https://s3-media2.fl.yelpcdn.com/bphoto/9WVUUm8xA08rp_eAB0U-1w/o.jpg", "is_closed": false, "url": "https://www.yelp.com/biz/eastern-gourmet-and-gifts-lynchburg?adjust_creative=6H8lmVuwW0ASiCP-qa0vsQ&utm_campaign=yelp_api_v3&utm_medium=api_v3_business_search&utm_source=6H8lmVuwW0ASiCP-qa0vsQ", "review_count": 10, "categories": [{"alias": "japanese", "title": "Japanese"}, {"alias": "chinese", "title": "Chinese"}], "rating": 3.5, "coordinates": {"latitude": 37.355888, "longitude": -79.239594}, "transactions": [], "price": "$", "location": {"address1": "113 Hexham Dr", "address2": "", "address3": "", "city": "Lynchburg", "zip_code": "24502", "country": "US", "state": "VA", "display_address": ["113 Hexham Dr", "Lynchburg, VA 24502"]}, "phone": "+14345825025", "display_phone": "(434) 582-5025", "distance": 5418.992423040605}, {"id": "XRJ5BszLChSFtx4FxvYpeg", "alias": "king-house-chinese-kitchen-lynchburg", "name": "King House Chinese Kitchen", "image_url": "https://s3-media4.fl.yelpcdn.com/bphoto/zAPWrNZmZpboGogqb3DLtw/o.jpg", "is_closed": false, "url": "https://www.yelp.com/biz/king-house-chinese-kitchen-lynchburg?adjust_creative=6H8lmVuwW0ASiCP-qa0vsQ&utm_campaign=yelp_api_v3&utm_medium=api_v3_business_search&utm_source=6H8lmVuwW0ASiCP-qa0vsQ", "review_count": 15, "categories": [{"alias": "chinese", "title": "Chinese"}], "rating": 4.0, "coordinates": {"latitude": 37.401391029551114, "longitude": -79.1686171714897}, "transactions": ["delivery"], "price": "$", "location": {"address1": "2509 Memorial Ave", "address2": "", "address3": "", "city": "Lynchburg", "zip_code": "24501", "country": "US", "state": "VA", "display_address": ["2509 Memorial Ave", "Lynchburg, VA 24501"]}, "phone": "+14348478828", "display_phone": "(434) 847-8828", "distance": 2648.5821091845232}, {"id": "n-BcNAafkFZZOP8Lm5T8lA", "alias": "courthouse-cafe-rustburg", "name": "Courthouse Cafe", "image_url": "https://s3-media1.fl.yelpcdn.com/bphoto/K_CAf4BFCK-UeVycPR4Y4Q/o.jpg", "is_closed": false, "url": "https://www.yelp.com/biz/courthouse-cafe-rustburg?adjust_creative=6H8lmVuwW0ASiCP-qa0vsQ&utm_campaign=yelp_api_v3&utm_medium=api_v3_business_search&utm_source=6H8lmVuwW0ASiCP-qa0vsQ", "review_count": 19, "categories": [{"alias": "diners", "title": "Diners"}, {"alias": "cafes", "title": "Cafes"}], "rating": 4.5, "coordinates": {"latitude": 37.27757, "longitude": -79.09986}, "transactions": ["delivery"], "price": "$", "location": {"address1": "880 Village Hwy", "address2": "", "address3": "", "city": "Rustburg", "zip_code": "24588", "country": "US", "state": "VA", "display_address": ["880 Village Hwy", "Rustburg, VA 24588"]}, "phone": "+14343323301", "display_phone": "(434) 332-3301", "distance": 14422.240454925586}, {"id": "iqrNgoLsixJWCNmYHJb7ig", "alias": "the-original-philly-grill-lynchburg", "name": "The Original Philly Grill", "image_url": "https://s3-media4.fl.yelpcdn.com/bphoto/UNV1bhSagpkvin-Myuc_Vw/o.jpg", "is_closed": false, "url": "https://www.yelp.com/biz/the-original-philly-grill-lynchburg?adjust_creative=6H8lmVuwW0ASiCP-qa0vsQ&utm_campaign=yelp_api_v3&utm_medium=api_v3_business_search&utm_source=6H8lmVuwW0ASiCP-qa0vsQ", "review_count": 3, "categories": [{"alias": "foodtrucks", "title": "Food Trucks"}, {"alias": "cheesesteaks", "title": "Cheesesteaks"}, {"alias": "hotdog", "title": "Hot Dogs"}], "rating": 5.0, "coordinates": {"latitude": 37.4023094177246, "longitude": -79.1575469970703}, "transactions": ["pickup", "delivery"], "location": {"address1": "1201 Campbell Ave", "address2": "", "address3": null, "city": "Lynchburg", "zip_code": "24501", "country": "US", "state": "VA", "display_address": ["1201 Campbell Ave", "Lynchburg, VA 24501"]}, "phone": "+14346652842", "display_phone": "(434) 665-2842", "distance": 3490.732932882101}, {"id": "gCzfWicECHjhD-KnISAEhQ", "alias": "la-fogata-mexican-restaurant-lynchburg", "name": "La Fogata Mexican Restaurant", "image_url": "https://s3-media2.fl.yelpcdn.com/bphoto/9JuJg4LGT1GfM-pp_FXg6Q/o.jpg", "is_closed": false, "url": "https://www.yelp.com/biz/la-fogata-mexican-restaurant-lynchburg?adjust_creative=6H8lmVuwW0ASiCP-qa0vsQ&utm_campaign=yelp_api_v3&utm_medium=api_v3_business_search&utm_source=6H8lmVuwW0ASiCP-qa0vsQ", "review_count": 55, "categories": [{"alias": "mexican", "title": "Mexican"}], "rating": 4.5, "coordinates": {"latitude": 37.35507, "longitude": -79.24055}, "transactions": ["delivery"], "price": "$", "location": {"address1": "1303 Enterprise Dr", "address2": null, "address3": null, "city": "Lynchburg", "zip_code": "24502", "country": "US", "state": "VA", "display_address": ["1303 Enterprise Dr", "Lynchburg, VA 24502"]}, "phone": "+14345821996", "display_phone": "(434) 582-1996", "distance": 5541.860634701547}, {"id": "ANLrW7lolVdLeBBMm9p0yQ", "alias": "osaka-japanese-express-restaurant-lynchburg", "name": "Osaka Japanese Express Restaurant", "image_url": "https://s3-media3.fl.yelpcdn.com/bphoto/Psy4oTXX7IuEkLEbg_mFvA/o.jpg", "is_closed": false, "url": "https://www.yelp.com/biz/osaka-japanese-express-restaurant-lynchburg?adjust_creative=6H8lmVuwW0ASiCP-qa0vsQ&utm_campaign=yelp_api_v3&utm_medium=api_v3_business_search&utm_source=6H8lmVuwW0ASiCP-qa0vsQ", "review_count": 68, "categories": [{"alias": "japanese", "title": "Japanese"}], "rating": 4.0, "coordinates": {"latitude": 37.3803787231445, "longitude": -79.1828994750977}, "transactions": ["delivery", "pickup"], "price": "$", "location": {"address1": "4901 Fort Ave", "address2": "Unit 8", "address3": "", "city": "Lynchburg", "zip_code": "24502", "country": "US", "state": "VA", "display_address": ["4901 Fort Ave", "Unit 8", "Lynchburg, VA 24502"]}, "phone": "+14343850182", "display_phone": "(434) 385-0182", "distance": 903.1916898507269}, {"id": "gYC-52Fx-SIbvR0d6hkFSg", "alias": "koto-japanese-steak-and-seafood-house-lynchburg", "name": "Koto Japanese Steak & Seafood House", "image_url": "https://s3-media2.fl.yelpcdn.com/bphoto/FwvLSuWiGNF1OQlt7Q7hIg/o.jpg", "is_closed": false, "url": "https://www.yelp.com/biz/koto-japanese-steak-and-seafood-house-lynchburg?adjust_creative=6H8lmVuwW0ASiCP-qa0vsQ&utm_campaign=yelp_api_v3&utm_medium=api_v3_business_search&utm_source=6H8lmVuwW0ASiCP-qa0vsQ", "review_count": 52, "categories": [{"alias": "japanese", "title": "Japanese"}, {"alias": "sushi", "title": "Sushi Bars"}, {"alias": "seafood", "title": "Seafood"}], "rating": 3.0, "coordinates": {"latitude": 37.3717613220215, "longitude": -79.1835174560547}, "transactions": ["delivery", "pickup"], "price": "$$", "location": {"address1": "2160 Wards Rd", "address2": "", "address3": "", "city": "Lynchburg", "zip_code": "24502", "country": "US", "state": "VA", "display_address": ["2160 Wards Rd", "Lynchburg, VA 24502"]}, "phone": "+14342379134", "display_phone": "(434) 237-9134", "distance": 1638.6166941465801}, {"id": "W0dh3NhtAEUBFOgj6xLw5Q", "alias": "la-carreta-mexican-restaurant-madison-heights-2", "name": "La Carreta Mexican Restaurant", "image_url": "https://s3-media3.fl.yelpcdn.com/bphoto/M-KMnTrWJAiHy62zB3Mj1g/o.jpg", "is_closed": false, "url": "https://www.yelp.com/biz/la-carreta-mexican-restaurant-madison-heights-2?adjust_creative=6H8lmVuwW0ASiCP-qa0vsQ&utm_campaign=yelp_api_v3&utm_medium=api_v3_business_search&utm_source=6H8lmVuwW0ASiCP-qa0vsQ", "review_count": 14, "categories": [{"alias": "mexican", "title": "Mexican"}], "rating": 4.0, "coordinates": {"latitude": 37.44568, "longitude": -79.12039}, "transactions": ["delivery", "pickup"], "price": "$", "location": {"address1": "4678 S Amherst Hwy", "address2": null, "address3": null, "city": "Madison Heights", "zip_code": "24572", "country": "US", "state": "VA", "display_address": ["4678 S Amherst Hwy", "Madison Heights, VA 24572"]}, "phone": "+14348462248", "display_phone": "(434) 846-2248", "distance": 9139.92550036087}, {"id": "0acZZiezbA855VnSzOgMDg", "alias": "new-yamazato-madison-heights", "name": "New Yamazato", "image_url": "https://s3-media1.fl.yelpcdn.com/bphoto/oPNYAEWXndjP0xmDM8zZNg/o.jpg", "is_closed": false, "url": "https://www.yelp.com/biz/new-yamazato-madison-heights?adjust_creative=6H8lmVuwW0ASiCP-qa0vsQ&utm_campaign=yelp_api_v3&utm_medium=api_v3_business_search&utm_source=6H8lmVuwW0ASiCP-qa0vsQ", "review_count": 21, "categories": [{"alias": "japanese", "title": "Japanese"}, {"alias": "bbq", "title": "Barbeque"}, {"alias": "asianfusion", "title": "Asian Fusion"}], "rating": 4.5, "coordinates": {"latitude": 37.4691065313919, "longitude": -79.1174301441548}, "transactions": ["pickup"], "price": "$", "location": {"address1": "228 Amelon Sq", "address2": "", "address3": null, "city": "Madison Heights", "zip_code": "24572", "country": "US", "state": "VA", "display_address": ["228 Amelon Sq", "Madison Heights, VA 24572"]}, "phone": "+14349298888", "display_phone": "(434) 929-8888", "distance": 11342.747795052668}, {"id": "edYnL86cqdxf56Bw6zOeLg", "alias": "east-coast-wings-grill-lynchburg", "name": "East Coast Wings + Grill", "image_url": "https://s3-media4.fl.yelpcdn.com/bphoto/mEp0Q93fUjBNz9VLu0Fd7w/o.jpg", "is_closed": false, "url": "https://www.yelp.com/biz/east-coast-wings-grill-lynchburg?adjust_creative=6H8lmVuwW0ASiCP-qa0vsQ&utm_campaign=yelp_api_v3&utm_medium=api_v3_business_search&utm_source=6H8lmVuwW0ASiCP-qa0vsQ", "review_count": 50, "categories": [{"alias": "chicken_wings", "title": "Chicken Wings"}, {"alias": "bars", "title": "Bars"}, {"alias": "burgers", "title": "Burgers"}], "rating": 3.5, "coordinates": {"latitude": 37.3933003, "longitude": -79.2339691}, "transactions": ["delivery", "pickup"], "price": "$$", "location": {"address1": "19399 Forest Rd", "address2": null, "address3": null, "city": "Lynchburg", "zip_code": "24502", "country": "US", "state": "VA", "display_address": ["19399 Forest Rd", "Lynchburg, VA 24502"]}, "phone": "+14346166297", "display_phone": "(434) 616-6297", "distance": 3911.7019696578627}, {"id": "ZMPphkCp_TpUGP1qb3Ie5g", "alias": "mi-patron-lynchburg-4", "name": "Mi Patron", "image_url": "https://s3-media4.fl.yelpcdn.com/bphoto/_Tf0wv15Y9MNSZGjubxGAQ/o.jpg", "is_closed": false, "url": "https://www.yelp.com/biz/mi-patron-lynchburg-4?adjust_creative=6H8lmVuwW0ASiCP-qa0vsQ&utm_campaign=yelp_api_v3&utm_medium=api_v3_business_search&utm_source=6H8lmVuwW0ASiCP-qa0vsQ", "review_count": 6, "categories": [{"alias": "mexican", "title": "Mexican"}], "rating": 3.0, "coordinates": {"latitude": 37.360337, "longitude": -79.16841}, "transactions": ["delivery"], "location": {"address1": "3700 Candlers Mountain Rd", "address2": "", "address3": null, "city": "Lynchburg", "zip_code": "24502", "country": "US", "state": "VA", "display_address": ["3700 Candlers Mountain Rd", "Lynchburg, VA 24502"]}, "phone": "+14348452844", "display_phone": "(434) 845-2844", "distance": 3418.27878480128}, {"id": "1wRz_jDCgCCzPKrcd9VdNQ", "alias": "zeros-subs-lynchburg", "name": "Zero's Subs", "image_url": "https://s3-media1.fl.yelpcdn.com/bphoto/SUhuqb6dIkYXDOsXyCIJQg/o.jpg", "is_closed": false, "url": "https://www.yelp.com/biz/zeros-subs-lynchburg?adjust_creative=6H8lmVuwW0ASiCP-qa0vsQ&utm_campaign=yelp_api_v3&utm_medium=api_v3_business_search&utm_source=6H8lmVuwW0ASiCP-qa0vsQ", "review_count": 4, "categories": [{"alias": "hotdogs", "title": "Fast Food"}, {"alias": "sandwiches", "title": "Sandwiches"}], "rating": 4.5, "coordinates": {"latitude": 37.33936, "longitude": -79.22642}, "transactions": ["delivery", "pickup"], "location": {"address1": "1209 Greenview Dr", "address2": "", "address3": null, "city": "Lynchburg", "zip_code": "24502", "country": "US", "state": "VA", "display_address": ["1209 Greenview Dr", "Lynchburg, VA 24502"]}, "phone": "+14343868350", "display_phone": "(434) 386-8350", "distance": 5996.909821723118}, {"id": "HUWyEQdOgz6h53DbdQWC2g", "alias": "c-anns-southern-bistro-lynchburg", "name": "C-Ann's Southern Bistro", "image_url": "", "is_closed": false, "url": "https://www.yelp.com/biz/c-anns-southern-bistro-lynchburg?adjust_creative=6H8lmVuwW0ASiCP-qa0vsQ&utm_campaign=yelp_api_v3&utm_medium=api_v3_business_search&utm_source=6H8lmVuwW0ASiCP-qa0vsQ", "review_count": 2, "categories": [{"alias": "steak", "title": "Steakhouses"}, {"alias": "southern", "title": "Southern"}, {"alias": "seafood", "title": "Seafood"}], "rating": 3.0, "coordinates": {"latitude": 37.33267, "longitude": -79.24243}, "transactions": ["delivery"], "location": {"address1": "708 Crowell Ln", "address2": "", "address3": null, "city": "Lynchburg", "zip_code": "24502", "country": "US", "state": "VA", "display_address": ["708 Crowell Ln", "Lynchburg, VA 24502"]}, "phone": "+14342397665", "display_phone": "(434) 239-7665", "distance": 7455.638780635503}, {"id": "dBkphU8_LdkiC5ZAL2ydOg", "alias": "choice-hibachi-buffet-lynchburg", "name": "Choice Hibachi Buffet", "image_url": "https://s3-media2.fl.yelpcdn.com/bphoto/GqBtgA94fnQ-LN0sJK9IZQ/o.jpg", "is_closed": false, "url": "https://www.yelp.com/biz/choice-hibachi-buffet-lynchburg?adjust_creative=6H8lmVuwW0ASiCP-qa0vsQ&utm_campaign=yelp_api_v3&utm_medium=api_v3_business_search&utm_source=6H8lmVuwW0ASiCP-qa0vsQ", "review_count": 109, "categories": [{"alias": "buffets", "title": "Buffets"}, {"alias": "asianfusion", "title": "Asian Fusion"}, {"alias": "tradamerican", "title": "American (Traditional)"}], "rating": 3.5, "coordinates": {"latitude": 37.36297440141867, "longitude": -79.18225244232892}, "transactions": ["delivery", "pickup"], "price": "$$", "location": {"address1": "2623 Wards Rd", "address2": "", "address3": "", "city": "Lynchburg", "zip_code": "24502", "country": "US", "state": "VA", "display_address": ["2623 Wards Rd", "Lynchburg, VA 24502"]}, "phone": "+14342390588", "display_phone": "(434) 239-0588", "distance": 2605.159284427642}, {"id": "6HrFSIwEfdhG6jtPI8VvPg", "alias": "subway-lynchburg-25", "name": "Subway", "image_url": "https://s3-media2.fl.yelpcdn.com/bphoto/Z0Y1bWW1iKxAJ8zEzFoDrA/o.jpg", "is_closed": false, "url": "https://www.yelp.com/biz/subway-lynchburg-25?adjust_creative=6H8lmVuwW0ASiCP-qa0vsQ&utm_campaign=yelp_api_v3&utm_medium=api_v3_business_search&utm_source=6H8lmVuwW0ASiCP-qa0vsQ", "review_count": 1, "categories": [{"alias": "sandwiches", "title": "Sandwiches"}], "rating": 5.0, "coordinates": {"latitude": 37.4104015, "longitude": -79.2102905}, "transactions": ["delivery", "pickup"], "location": {"address1": "3227 Old Forest Rd", "address2": null, "address3": null, "city": "Lynchburg", "zip_code": "24501", "country": "US", "state": "VA", "display_address": ["3227 Old Forest Rd", "Lynchburg, VA 24501"]}, "phone": "+14344555999", "display_phone": "(434) 455-5999", "distance": 3269.681350821697}, {"id": "XRs78eJ6XAIMsEA2-9XugA", "alias": "golden-china-lynchburg", "name": "Golden China", "image_url": "", "is_closed": false, "url": "https://www.yelp.com/biz/golden-china-lynchburg?adjust_creative=6H8lmVuwW0ASiCP-qa0vsQ&utm_campaign=yelp_api_v3&utm_medium=api_v3_business_search&utm_source=6H8lmVuwW0ASiCP-qa0vsQ", "review_count": 1, "categories": [{"alias": "chinese", "title": "Chinese"}], "rating": 5.0, "coordinates": {"latitude": 37.416015625, "longitude": -79.1437225341797}, "transactions": [], "location": {"address1": "713 Main St", "address2": null, "address3": null, "city": "Lynchburg", "zip_code": "24504", "country": "US", "state": "VA", "display_address": ["713 Main St", "Lynchburg, VA 24504"]}, "phone": "+14348476886", "display_phone": "(434) 847-6886", "distance": 5376.718389494491}, {"id": "uMYsuMxnENiMerEgZKh8FQ", "alias": "kyoto-japanese-express-lynchburg-2", "name": "Kyoto Japanese Express", "image_url": "https://s3-media2.fl.yelpcdn.com/bphoto/yEXoIcDTMKEIL_4uDBr_7Q/o.jpg", "is_closed": false, "url": "https://www.yelp.com/biz/kyoto-japanese-express-lynchburg-2?adjust_creative=6H8lmVuwW0ASiCP-qa0vsQ&utm_campaign=yelp_api_v3&utm_medium=api_v3_business_search&utm_source=6H8lmVuwW0ASiCP-qa0vsQ", "review_count": 18, "categories": [{"alias": "japanese", "title": "Japanese"}], "rating": 3.5, "coordinates": {"latitude": 37.409538, "longitude": -79.210498}, "transactions": ["delivery", "pickup"], "price": "$", "location": {"address1": "3211-E Forest Brook Rd", "address2": "", "address3": "", "city": "Lynchburg", "zip_code": "24501", "country": "US", "state": "VA", "display_address": ["3211-E Forest Brook Rd", "Lynchburg, VA 24501"]}, "phone": "+14343856181", "display_phone": "(434) 385-6181", "distance": 3217.686417754405}, {"id": "wz_-iWfqW_4oUe9o5-aUVw", "alias": "pho-viet-forest", "name": "Pho Viet", "image_url": "https://s3-media2.fl.yelpcdn.com/bphoto/p1X69RbnRXJ6WAtCfZQWOA/o.jpg", "is_closed": false, "url": "https://www.yelp.com/biz/pho-viet-forest?adjust_creative=6H8lmVuwW0ASiCP-qa0vsQ&utm_campaign=yelp_api_v3&utm_medium=api_v3_business_search&utm_source=6H8lmVuwW0ASiCP-qa0vsQ", "review_count": 16, "categories": [{"alias": "vietnamese", "title": "Vietnamese"}], "rating": 4.5, "coordinates": {"latitude": 37.365434, "longitude": -79.296709}, "transactions": ["delivery", "pickup"], "location": {"address1": "14805 Forest Rd", "address2": "Unit 221", "address3": null, "city": "Forest", "zip_code": "24551", "country": "US", "state": "VA", "display_address": ["14805 Forest Rd", "Unit 221", "Forest, VA 24551"]}, "phone": "+14346162992", "display_phone": "(434) 616-2992", "distance": 9545.964059631044}, {"id": "s-CbvO8_CKvgPG9AcjjD-Q", "alias": "saigon-palace-lynchburg", "name": "Saigon Palace", "image_url": "https://s3-media4.fl.yelpcdn.com/bphoto/Mzfa0AcuySFvkYb33Px6GQ/o.jpg", "is_closed": false, "url": "https://www.yelp.com/biz/saigon-palace-lynchburg?adjust_creative=6H8lmVuwW0ASiCP-qa0vsQ&utm_campaign=yelp_api_v3&utm_medium=api_v3_business_search&utm_source=6H8lmVuwW0ASiCP-qa0vsQ", "review_count": 159, "categories": [{"alias": "vietnamese", "title": "Vietnamese"}], "rating": 4.5, "coordinates": {"latitude": 37.33796870844606, "longitude": -79.23807944907558}, "transactions": ["delivery"], "price": "$", "location": {"address1": "20722 Timberlake Rd", "address2": "", "address3": "", "city": "Lynchburg", "zip_code": "24502", "country": "US", "state": "VA", "display_address": ["20722 Timberlake Rd", "Lynchburg, VA 24502"]}, "phone": "+14342372315", "display_phone": "(434) 237-2315", "distance": 6726.511673553126}, {"id": "RdY367legDJ2H0qN9x0qvQ", "alias": "mikado-express-lynchburg", "name": "Mikado Express", "image_url": "https://s3-media2.fl.yelpcdn.com/bphoto/vrYUkw95IJCwOFNOJ5XS8g/o.jpg", "is_closed": false, "url": "https://www.yelp.com/biz/mikado-express-lynchburg?adjust_creative=6H8lmVuwW0ASiCP-qa0vsQ&utm_campaign=yelp_api_v3&utm_medium=api_v3_business_search&utm_source=6H8lmVuwW0ASiCP-qa0vsQ", "review_count": 13, "categories": [{"alias": "sushi", "title": "Sushi Bars"}, {"alias": "japanese", "title": "Japanese"}], "rating": 2.5, "coordinates": {"latitude": 37.3966789, "longitude": -79.1706467}, "transactions": ["delivery", "pickup"], "price": "$", "location": {"address1": "3028 Memorial Ave", "address2": "", "address3": "", "city": "Lynchburg", "zip_code": "24501", "country": "US", "state": "VA", "display_address": ["3028 Memorial Ave", "Lynchburg, VA 24501"]}, "phone": "+14348474028", "display_phone": "(434) 847-4028", "distance": 2181.361380680554}, {"id": "a1J72odlFIyP8aF4IeTvYw", "alias": "cook-out-lynchburg-2", "name": "Cook Out", "image_url": "https://s3-media1.fl.yelpcdn.com/bphoto/Tk5EQ0zW7hTj2Iz5xNarZw/o.jpg", "is_closed": false, "url": "https://www.yelp.com/biz/cook-out-lynchburg-2?adjust_creative=6H8lmVuwW0ASiCP-qa0vsQ&utm_campaign=yelp_api_v3&utm_medium=api_v3_business_search&utm_source=6H8lmVuwW0ASiCP-qa0vsQ", "review_count": 73, "categories": [{"alias": "hotdogs", "title": "Fast Food"}, {"alias": "hotdog", "title": "Hot Dogs"}, {"alias": "burgers", "title": "Burgers"}], "rating": 3.5, "coordinates": {"latitude": 37.36211, "longitude": -79.18199}, "transactions": ["delivery"], "price": "$", "location": {"address1": "2629 Wards Rd", "address2": "", "address3": "", "city": "Lynchburg", "zip_code": "24502", "country": "US", "state": "VA", "display_address": ["2629 Wards Rd", "Lynchburg, VA 24502"]}, "phone": "+14345821225", "display_phone": "(434) 582-1225", "distance": 2700.7937023779127}, {"id": "5BCthAQwA9nuzyr_zo9R2Q", "alias": "crisp-lynchburg", "name": "Crisp", "image_url": "https://s3-media2.fl.yelpcdn.com/bphoto/yv-c-pEVhDHT-9S7eNY_Mg/o.jpg", "is_closed": false, "url": "https://www.yelp.com/biz/crisp-lynchburg?adjust_creative=6H8lmVuwW0ASiCP-qa0vsQ&utm_campaign=yelp_api_v3&utm_medium=api_v3_business_search&utm_source=6H8lmVuwW0ASiCP-qa0vsQ", "review_count": 99, "categories": [{"alias": "salad", "title": "Salad"}, {"alias": "juicebars", "title": "Juice Bars & Smoothies"}, {"alias": "wraps", "title": "Wraps"}], "rating": 4.5, "coordinates": {"latitude": 37.41216256447086, "longitude": -79.1410515224481}, "transactions": ["delivery", "pickup"], "price": "$", "location": {"address1": "1124 Church St", "address2": null, "address3": "", "city": "Lynchburg", "zip_code": "24504", "country": "US", "state": "VA", "display_address": ["1124 Church St", "Lynchburg, VA 24504"]}, "phone": "+14343868998", "display_phone": "(434) 386-8998", "distance": 5309.8928652541845}, {"id": "2IR6q6Jz5Z-cxzdqdJ8gLw", "alias": "ghost-donkey-forest", "name": "Ghost Donkey", "image_url": "https://s3-media4.fl.yelpcdn.com/bphoto/c-zqFXSRmZ38E0KuiqAdoA/o.jpg", "is_closed": false, "url": "https://www.yelp.com/biz/ghost-donkey-forest?adjust_creative=6H8lmVuwW0ASiCP-qa0vsQ&utm_campaign=yelp_api_v3&utm_medium=api_v3_business_search&utm_source=6H8lmVuwW0ASiCP-qa0vsQ", "review_count": 6, "categories": [{"alias": "foodtrucks", "title": "Food Trucks"}], "rating": 3.5, "coordinates": {"latitude": 37.3648434014484, "longitude": -79.2744954556069}, "transactions": [], "location": {"address1": "16129 Forest Rd", "address2": "", "address3": null, "city": "Forest", "zip_code": "24551", "country": "US", "state": "VA", "display_address": ["16129 Forest Rd", "Forest, VA 24551"]}, "phone": "", "display_phone": "", "distance": 7738.311580263649}, {"id": "v4zGSFqud9v7wFZiFKZ2ig", "alias": "ihop-lynchburg", "name": "IHOP", "image_url": "https://s3-media3.fl.yelpcdn.com/bphoto/R6aFtJOEE0mXJlz4VyrtZQ/o.jpg", "is_closed": false, "url": "https://www.yelp.com/biz/ihop-lynchburg?adjust_creative=6H8lmVuwW0ASiCP-qa0vsQ&utm_campaign=yelp_api_v3&utm_medium=api_v3_business_search&utm_source=6H8lmVuwW0ASiCP-qa0vsQ", "review_count": 58, "categories": [{"alias": "breakfast_brunch", "title": "Breakfast & Brunch"}, {"alias": "tradamerican", "title": "American (Traditional)"}, {"alias": "burgers", "title": "Burgers"}], "rating": 2.0, "coordinates": {"latitude": 37.37511, "longitude": -79.18679}, "transactions": ["delivery", "pickup"], "price": "$", "location": {"address1": "5500 Fort Ave", "address2": "", "address3": "", "city": "Lynchburg", "zip_code": "24502", "country": "US", "state": "VA", "display_address": ["5500 Fort Ave", "Lynchburg, VA 24502"]}, "phone": "+14342399725", "display_phone": "(434) 239-9725", "distance": 1197.4845379956207}, {"id": "LjIRINcycRU3H6CVqOjctg", "alias": "arbys-lynchburg", "name": "Arby's", "image_url": "https://s3-media4.fl.yelpcdn.com/bphoto/7iuNzrnGSVW_4IYscoH8Pw/o.jpg", "is_closed": false, "url": "https://www.yelp.com/biz/arbys-lynchburg?adjust_creative=6H8lmVuwW0ASiCP-qa0vsQ&utm_campaign=yelp_api_v3&utm_medium=api_v3_business_search&utm_source=6H8lmVuwW0ASiCP-qa0vsQ", "review_count": 5, "categories": [{"alias": "hotdogs", "title": "Fast Food"}, {"alias": "sandwiches", "title": "Sandwiches"}], "rating": 3.0, "coordinates": {"latitude": 37.3265010863543, "longitude": -79.2501984536648}, "transactions": ["delivery", "pickup"], "price": "$", "location": {"address1": "21717 Timberlake Rd", "address2": "", "address3": "", "city": "Lynchburg", "zip_code": "24502", "country": "US", "state": "VA", "display_address": ["21717 Timberlake Rd", "Lynchburg, VA 24502"]}, "phone": "+14345821902", "display_phone": "(434) 582-1902", "distance": 8404.379076262943}, {"id": "g-Nsl89bOi535ADNJKcYTw", "alias": "good-taste-lynchburg-2", "name": "Good Taste", "image_url": "https://s3-media1.fl.yelpcdn.com/bphoto/ud2DRyFGYeSk_FRdOm6NfA/o.jpg", "is_closed": false, "url": "https://www.yelp.com/biz/good-taste-lynchburg-2?adjust_creative=6H8lmVuwW0ASiCP-qa0vsQ&utm_campaign=yelp_api_v3&utm_medium=api_v3_business_search&utm_source=6H8lmVuwW0ASiCP-qa0vsQ", "review_count": 31, "categories": [{"alias": "chinese", "title": "Chinese"}, {"alias": "japanese", "title": "Japanese"}], "rating": 2.5, "coordinates": {"latitude": 37.354688, "longitude": -79.224809}, "transactions": ["delivery"], "price": "$", "location": {"address1": "7701 Timberlake Rd", "address2": "Ste 111", "address3": "", "city": "Lynchburg", "zip_code": "24502", "country": "US", "state": "VA", "display_address": ["7701 Timberlake Rd", "Ste 111", "Lynchburg, VA 24502"]}, "phone": "+14342391808", "display_phone": "(434) 239-1808", "distance": 4546.80093161867}, {"id": "FltUDeIf-stsfjc9iC5-fw", "alias": "china-wall-madison-heights", "name": "China Wall", "image_url": "https://s3-media2.fl.yelpcdn.com/bphoto/_vZ443rFrCHs_w39GI8INQ/o.jpg", "is_closed": false, "url": "https://www.yelp.com/biz/china-wall-madison-heights?adjust_creative=6H8lmVuwW0ASiCP-qa0vsQ&utm_campaign=yelp_api_v3&utm_medium=api_v3_business_search&utm_source=6H8lmVuwW0ASiCP-qa0vsQ", "review_count": 9, "categories": [{"alias": "chinese", "title": "Chinese"}], "rating": 3.5, "coordinates": {"latitude": 37.468555, "longitude": -79.118501}, "transactions": ["pickup", "delivery"], "location": {"address1": "302 Amelon Square", "address2": null, "address3": "", "city": "Madison Heights", "zip_code": "24572", "country": "US", "state": "VA", "display_address": ["302 Amelon Square", "Madison Heights, VA 24572"]}, "phone": "+14349293886", "display_phone": "(434) 929-3886", "distance": 11238.481602166885}, {"id": "RHws5AP_O69FJP3ZtcmSGQ", "alias": "chipotle-mexican-grill-lynchburg-3", "name": "Chipotle Mexican Grill", "image_url": "https://s3-media2.fl.yelpcdn.com/bphoto/gbE94_xXAnYcYeLU5_qK2g/o.jpg", "is_closed": false, "url": "https://www.yelp.com/biz/chipotle-mexican-grill-lynchburg-3?adjust_creative=6H8lmVuwW0ASiCP-qa0vsQ&utm_campaign=yelp_api_v3&utm_medium=api_v3_business_search&utm_source=6H8lmVuwW0ASiCP-qa0vsQ", "review_count": 22, "categories": [{"alias": "mexican", "title": "Mexican"}, {"alias": "hotdogs", "title": "Fast Food"}], "rating": 2.0, "coordinates": {"latitude": 37.39781457424067, "longitude": -79.22338814325336}, "transactions": ["pickup", "delivery"], "price": "$", "location": {"address1": "3901 Old Forest Rd", "address2": "Ste 101", "address3": null, "city": "Lynchburg", "zip_code": "24501", "country": "US", "state": "VA", "display_address": ["3901 Old Forest Rd", "Ste 101", "Lynchburg, VA 24501"]}, "phone": "+14343850328", "display_phone": "(434) 385-0328", "distance": 3191.184769020642}, {"id": "KRji4T6Liu2Ci0jjg3f0Ng", "alias": "dq-grill-and-chill-restaurant-lynchburg", "name": "DQ Grill & Chill Restaurant", "image_url": "https://s3-media2.fl.yelpcdn.com/bphoto/KovjuGGiISSKiJkTYkb9Hg/o.jpg", "is_closed": false, "url": "https://www.yelp.com/biz/dq-grill-and-chill-restaurant-lynchburg?adjust_creative=6H8lmVuwW0ASiCP-qa0vsQ&utm_campaign=yelp_api_v3&utm_medium=api_v3_business_search&utm_source=6H8lmVuwW0ASiCP-qa0vsQ", "review_count": 21, "categories": [{"alias": "hotdogs", "title": "Fast Food"}, {"alias": "icecream", "title": "Ice Cream & Frozen Yogurt"}, {"alias": "burgers", "title": "Burgers"}], "rating": 1.0, "coordinates": {"latitude": 37.3495933, "longitude": -79.2310599}, "transactions": ["pickup", "delivery"], "price": "$", "location": {"address1": "8021 Timberlake Rd", "address2": "", "address3": "", "city": "Lynchburg", "zip_code": "24502", "country": "US", "state": "VA", "display_address": ["8021 Timberlake Rd", "Lynchburg, VA 24502"]}, "phone": "+14342377030", "display_phone": "(434) 237-7030", "distance": 5337.2356949523655}, {"id": "cKgHx7yAnCaIQvXEkHgG1g", "alias": "brothers-pizza-and-grill-lynchburg", "name": "Brothers Pizza & Grill", "image_url": "https://s3-media2.fl.yelpcdn.com/bphoto/cZ-QhvevT1RWXY98VFo3iw/o.jpg", "is_closed": false, "url": "https://www.yelp.com/biz/brothers-pizza-and-grill-lynchburg?adjust_creative=6H8lmVuwW0ASiCP-qa0vsQ&utm_campaign=yelp_api_v3&utm_medium=api_v3_business_search&utm_source=6H8lmVuwW0ASiCP-qa0vsQ", "review_count": 36, "categories": [{"alias": "tradamerican", "title": "American (Traditional)"}, {"alias": "pizza", "title": "Pizza"}, {"alias": "greek", "title": "Greek"}], "rating": 4.5, "coordinates": {"latitude": 37.337948, "longitude": -79.238061}, "transactions": ["pickup", "delivery"], "price": "$$$", "location": {"address1": "20722 Timberlake Rd", "address2": "Ste C", "address3": "", "city": "Lynchburg", "zip_code": "24502", "country": "US", "state": "VA", "display_address": ["20722 Timberlake Rd", "Ste C", "Lynchburg, VA 24502"]}, "phone": "+14342661114", "display_phone": "(434) 266-1114", "distance": 6727.305361396979}, {"id": "LUkxlFUB8jL_cSh5C-eByw", "alias": "subway-lynchburg-16", "name": "Subway", "image_url": "https://s3-media3.fl.yelpcdn.com/bphoto/mYqSDGKWhJCQ9N_inIzVyA/o.jpg", "is_closed": false, "url": "https://www.yelp.com/biz/subway-lynchburg-16?adjust_creative=6H8lmVuwW0ASiCP-qa0vsQ&utm_campaign=yelp_api_v3&utm_medium=api_v3_business_search&utm_source=6H8lmVuwW0ASiCP-qa0vsQ", "review_count": 3, "categories": [{"alias": "sandwiches", "title": "Sandwiches"}], "rating": 4.0, "coordinates": {"latitude": 37.3726722276582, "longitude": -79.1836161395196}, "transactions": ["pickup", "delivery"], "price": "$", "location": {"address1": "2154 Wards Rd", "address2": "", "address3": "", "city": "Lynchburg", "zip_code": "24502", "country": "US", "state": "VA", "display_address": ["2154 Wards Rd", "Lynchburg, VA 24502"]}, "phone": "+14342374287", "display_phone": "(434) 237-4287", "distance": 1551.0887178697876}, {"id": "mdSQKR44572UvptXg3bEEg", "alias": "firehouse-subs-forest", "name": "Firehouse Subs", "image_url": "https://s3-media2.fl.yelpcdn.com/bphoto/zXlp05bcyLto5z3MHkX1yw/o.jpg", "is_closed": false, "url": "https://www.yelp.com/biz/firehouse-subs-forest?adjust_creative=6H8lmVuwW0ASiCP-qa0vsQ&utm_campaign=yelp_api_v3&utm_medium=api_v3_business_search&utm_source=6H8lmVuwW0ASiCP-qa0vsQ", "review_count": 5, "categories": [{"alias": "hotdogs", "title": "Fast Food"}, {"alias": "delis", "title": "Delis"}, {"alias": "sandwiches", "title": "Sandwiches"}], "rating": 3.0, "coordinates": {"latitude": 37.3661, "longitude": -79.259863}, "transactions": ["pickup", "delivery"], "location": {"address1": "16955 Forest Rd", "address2": "Ste K", "address3": null, "city": "Forest", "zip_code": "24551", "country": "US", "state": "VA", "display_address": ["16955 Forest Rd", "Ste K", "Forest, VA 24551"]}, "phone": "+14346162328", "display_phone": "(434) 616-2328", "distance": 6466.433449658631}, {"id": "L-XNZMneD65g4t0DUfYV2w", "alias": "sakura-japanese-steak-and-seafood-house-lynchburg", "name": "Sakura Japanese Steak & Seafood House", "image_url": "", "is_closed": false, "url": "https://www.yelp.com/biz/sakura-japanese-steak-and-seafood-house-lynchburg?adjust_creative=6H8lmVuwW0ASiCP-qa0vsQ&utm_campaign=yelp_api_v3&utm_medium=api_v3_business_search&utm_source=6H8lmVuwW0ASiCP-qa0vsQ", "review_count": 5, "categories": [{"alias": "japanese", "title": "Japanese"}], "rating": 2.5, "coordinates": {"latitude": 37.3705215, "longitude": -79.1975632}, "transactions": ["delivery"], "price": "$$", "location": {"address1": "6113 Fort Ave", "address2": "", "address3": "", "city": "Lynchburg", "zip_code": "24502", "country": "US", "state": "VA", "display_address": ["6113 Fort Ave", "Lynchburg, VA 24502"]}, "phone": "+14342373900", "display_phone": "(434) 237-3900", "distance": 1757.7996154315656}, {"id": "XSnXwKZAUxq4U5EBc55ElQ", "alias": "barbs-dream-hut-lynchburg", "name": "Barb's Dream Hut", "image_url": "https://s3-media1.fl.yelpcdn.com/bphoto/UE51AdZkkbSSMJHES40f4w/o.jpg", "is_closed": false, "url": "https://www.yelp.com/biz/barbs-dream-hut-lynchburg?adjust_creative=6H8lmVuwW0ASiCP-qa0vsQ&utm_campaign=yelp_api_v3&utm_medium=api_v3_business_search&utm_source=6H8lmVuwW0ASiCP-qa0vsQ", "review_count": 17, "categories": [{"alias": "tradamerican", "title": "American (Traditional)"}], "rating": 4.0, "coordinates": {"latitude": 37.4115867614746, "longitude": -79.1401977539062}, "transactions": ["delivery"], "location": {"address1": "1219 Main St", "address2": null, "address3": null, "city": "Lynchburg", "zip_code": "24504", "country": "US", "state": "VA", "display_address": ["1219 Main St", "Lynchburg, VA 24504"]}, "phone": "+14348456700", "display_phone": "(434) 845-6700", "distance": 5317.811366340429}, {"id": "4sxokH-0CB7BrEQDHvPG-A", "alias": "mi-patron-lynchburg", "name": "Mi Patron", "image_url": "https://s3-media1.fl.yelpcdn.com/bphoto/vU3GxYSgVqYOVRJ82WaUFQ/o.jpg", "is_closed": false, "url": "https://www.yelp.com/biz/mi-patron-lynchburg?adjust_creative=6H8lmVuwW0ASiCP-qa0vsQ&utm_campaign=yelp_api_v3&utm_medium=api_v3_business_search&utm_source=6H8lmVuwW0ASiCP-qa0vsQ", "review_count": 24, "categories": [{"alias": "mexican", "title": "Mexican"}], "rating": 3.5, "coordinates": {"latitude": 37.4464229, "longitude": -79.2177767}, "transactions": ["delivery"], "price": "$", "location": {"address1": "4925 Boonsboro Rd", "address2": "", "address3": "", "city": "Lynchburg", "zip_code": "24503", "country": "US", "state": "VA", "display_address": ["4925 Boonsboro Rd", "Lynchburg, VA 24503"]}, "phone": "+14343844535", "display_phone": "(434) 384-4535", "distance": 7191.761363354518}, {"id": "a2-viMfa1rGa4BS1mZdgCA", "alias": "biscuitville-lynchburg-2", "name": "Biscuitville", "image_url": "https://s3-media2.fl.yelpcdn.com/bphoto/82yAUwOFG9B2YMjrBVETHA/o.jpg", "is_closed": false, "url": "https://www.yelp.com/biz/biscuitville-lynchburg-2?adjust_creative=6H8lmVuwW0ASiCP-qa0vsQ&utm_campaign=yelp_api_v3&utm_medium=api_v3_business_search&utm_source=6H8lmVuwW0ASiCP-qa0vsQ", "review_count": 9, "categories": [{"alias": "breakfast_brunch", "title": "Breakfast & Brunch"}], "rating": 4.0, "coordinates": {"latitude": 37.41036, "longitude": -79.21243}, "transactions": ["delivery"], "price": "$", "location": {"address1": "3301 Old Forest Rd", "address2": "", "address3": "", "city": "Lynchburg", "zip_code": "24501", "country": "US", "state": "VA", "display_address": ["3301 Old Forest Rd", "Lynchburg, VA 24501"]}, "phone": "+14343856177", "display_phone": "(434) 385-6177", "distance": 3388.5256565718228}, {"id": "P289pzdEzddlyK2N6EJWew", "alias": "taqueria-la-tradicional-forest", "name": "Taqueria La Tradicional", "image_url": "https://s3-media4.fl.yelpcdn.com/bphoto/GxGvkLQKyCVcv0nDpNJcsg/o.jpg", "is_closed": false, "url": "https://www.yelp.com/biz/taqueria-la-tradicional-forest?adjust_creative=6H8lmVuwW0ASiCP-qa0vsQ&utm_campaign=yelp_api_v3&utm_medium=api_v3_business_search&utm_source=6H8lmVuwW0ASiCP-qa0vsQ", "review_count": 98, "categories": [{"alias": "mexican", "title": "Mexican"}], "rating": 4.5, "coordinates": {"latitude": 37.3801, "longitude": -79.24662}, "transactions": ["delivery"], "price": "$", "location": {"address1": "18243 Forest Rd", "address2": "Ste 8", "address3": "", "city": "Forest", "zip_code": "24502", "country": "US", "state": "VA", "display_address": ["18243 Forest Rd", "Ste 8", "Forest, VA 24502"]}, "phone": "+14343160110", "display_phone": "(434) 316-0110", "distance": 4962.315305158431}, {"id": "UKKX-qZG7l2N_tXAOp-kpw", "alias": "big-lick-tropical-grill-lynchburg-2", "name": "Big Lick Tropical Grill", "image_url": "https://s3-media2.fl.yelpcdn.com/bphoto/s5WugRKEqBLUrAmp3EOcBQ/o.jpg", "is_closed": false, "url": "https://www.yelp.com/biz/big-lick-tropical-grill-lynchburg-2?adjust_creative=6H8lmVuwW0ASiCP-qa0vsQ&utm_campaign=yelp_api_v3&utm_medium=api_v3_business_search&utm_source=6H8lmVuwW0ASiCP-qa0vsQ", "review_count": 35, "categories": [{"alias": "caribbean", "title": "Caribbean"}, {"alias": "musicvenues", "title": "Music Venues"}], "rating": 3.5, "coordinates": {"latitude": 37.38378, "longitude": -79.16873}, "transactions": ["pickup", "delivery"], "price": "$$", "location": {"address1": "4001 Murray Pl", "address2": "", "address3": "", "city": "Lynchburg", "zip_code": "24501", "country": "US", "state": "VA", "display_address": ["4001 Murray Pl", "Lynchburg, VA 24501"]}, "phone": "+14345283604", "display_phone": "(434) 528-3604", "distance": 1971.3353369963368}, {"id": "CwowowuHrjhFpQq0a41Fjw", "alias": "moore-s-country-store-lynchburg", "name": "Moore\u2019s Country Store", "image_url": "https://s3-media3.fl.yelpcdn.com/bphoto/DEbcmiv0E2OCST1HkANC3A/o.jpg", "is_closed": false, "url": "https://www.yelp.com/biz/moore-s-country-store-lynchburg?adjust_creative=6H8lmVuwW0ASiCP-qa0vsQ&utm_campaign=yelp_api_v3&utm_medium=api_v3_business_search&utm_source=6H8lmVuwW0ASiCP-qa0vsQ", "review_count": 11, "categories": [{"alias": "convenience", "title": "Convenience Stores"}, {"alias": "hotdog", "title": "Hot Dogs"}, {"alias": "tradamerican", "title": "American (Traditional)"}], "rating": 3.5, "coordinates": {"latitude": 37.3760759660893, "longitude": -79.2249058932066}, "transactions": ["pickup", "delivery"], "price": "$", "location": {"address1": "1001 Creekside Ln", "address2": "", "address3": null, "city": "Lynchburg", "zip_code": "24502", "country": "US", "state": "VA", "display_address": ["1001 Creekside Ln", "Lynchburg, VA 24502"]}, "phone": "+14344392397", "display_phone": "(434) 439-2397", "distance": 3184.324491312913}, {"id": "Cbhp7oRJI5KXcEUFsWyilg", "alias": "applebees-grill-bar-lynchburg-2", "name": "Applebee's Grill + Bar", "image_url": "https://s3-media2.fl.yelpcdn.com/bphoto/KioOQYFQf0zBm64A2uyE4Q/o.jpg", "is_closed": false, "url": "https://www.yelp.com/biz/applebees-grill-bar-lynchburg-2?adjust_creative=6H8lmVuwW0ASiCP-qa0vsQ&utm_campaign=yelp_api_v3&utm_medium=api_v3_business_search&utm_source=6H8lmVuwW0ASiCP-qa0vsQ", "review_count": 30, "categories": [{"alias": "tradamerican", "title": "American (Traditional)"}, {"alias": "sportsbars", "title": "Sports Bars"}, {"alias": "burgers", "title": "Burgers"}], "rating": 3.0, "coordinates": {"latitude": 37.3633, "longitude": -79.1709}, "transactions": ["pickup", "delivery"], "price": "$$", "location": {"address1": "3624 Candlers Mountain Rd", "address2": "", "address3": "", "city": "Lynchburg", "zip_code": "24502", "country": "US", "state": "VA", "display_address": ["3624 Candlers Mountain Rd", "Lynchburg, VA 24502"]}, "phone": "+14345282626", "display_phone": "(434) 528-2626", "distance": 3022.2623765020157}, {"id": "zXsj1Y0CY2xk0htQEvDfMw", "alias": "dairy-queen-grill-and-chill-madison-heights", "name": "Dairy Queen Grill & Chill", "image_url": "https://s3-media3.fl.yelpcdn.com/bphoto/jQSqHdXrq3hiO-IMMrvy9g/o.jpg", "is_closed": false, "url": "https://www.yelp.com/biz/dairy-queen-grill-and-chill-madison-heights?adjust_creative=6H8lmVuwW0ASiCP-qa0vsQ&utm_campaign=yelp_api_v3&utm_medium=api_v3_business_search&utm_source=6H8lmVuwW0ASiCP-qa0vsQ", "review_count": 10, "categories": [{"alias": "hotdogs", "title": "Fast Food"}, {"alias": "icecream", "title": "Ice Cream & Frozen Yogurt"}, {"alias": "burgers", "title": "Burgers"}], "rating": 3.5, "coordinates": {"latitude": 37.43554469303979, "longitude": -79.12303291641814}, "transactions": ["pickup", "delivery"], "price": "$", "location": {"address1": "4980 S Amherst Hwy", "address2": "", "address3": "", "city": "Madison Heights", "zip_code": "24572", "country": "US", "state": "VA", "display_address": ["4980 S Amherst Hwy", "Madison Heights, VA 24572"]}, "phone": "+14348468613", "display_phone": "(434) 846-8613", "distance": 8182.5434401374805}, {"id": "VLITEldWts88EfMsOBp6Iw", "alias": "tokyo-hibachi-grill-lynchburg", "name": "Tokyo Hibachi Grill", "image_url": "https://s3-media4.fl.yelpcdn.com/bphoto/I3uZ3VaW5r50cIin46HL6A/o.jpg", "is_closed": false, "url": "https://www.yelp.com/biz/tokyo-hibachi-grill-lynchburg?adjust_creative=6H8lmVuwW0ASiCP-qa0vsQ&utm_campaign=yelp_api_v3&utm_medium=api_v3_business_search&utm_source=6H8lmVuwW0ASiCP-qa0vsQ", "review_count": 17, "categories": [{"alias": "japanese", "title": "Japanese"}, {"alias": "chinese", "title": "Chinese"}], "rating": 3.5, "coordinates": {"latitude": 37.4163255, "longitude": -79.2015472}, "transactions": ["pickup", "delivery"], "price": "$", "location": {"address1": "2822 A Linkhorne Dr", "address2": "", "address3": "", "city": "Lynchburg", "zip_code": "24503", "country": "US", "state": "VA", "display_address": ["2822 A Linkhorne Dr", "Lynchburg, VA 24503"]}, "phone": "+14343843396", "display_phone": "(434) 384-3396", "distance": 3610.8977890778156}, {"id": "7RN_L-N8vPd_W5EBamewfw", "alias": "jersey-mikes-subs-lynchburg-3", "name": "Jersey Mike's Subs", "image_url": "https://s3-media4.fl.yelpcdn.com/bphoto/UQwls1jD-aCgV8WN3lZSJw/o.jpg", "is_closed": false, "url": "https://www.yelp.com/biz/jersey-mikes-subs-lynchburg-3?adjust_creative=6H8lmVuwW0ASiCP-qa0vsQ&utm_campaign=yelp_api_v3&utm_medium=api_v3_business_search&utm_source=6H8lmVuwW0ASiCP-qa0vsQ", "review_count": 12, "categories": [{"alias": "sandwiches", "title": "Sandwiches"}, {"alias": "hotdogs", "title": "Fast Food"}, {"alias": "delis", "title": "Delis"}], "rating": 4.0, "coordinates": {"latitude": 37.35022, "longitude": -79.18449}, "transactions": ["pickup", "delivery"], "price": "$$", "location": {"address1": "3919 Wards Rd", "address2": "Ste D", "address3": null, "city": "Lynchburg", "zip_code": "24502", "country": "US", "state": "VA", "display_address": ["3919 Wards Rd", "Ste D", "Lynchburg, VA 24502"]}, "phone": "+14345821300", "display_phone": "(434) 582-1300", "distance": 3948.637739417059}, {"id": "dm4sfJ9MleN316XTtTGjbg", "alias": "taco-bell-madison-heights-5", "name": "Taco Bell", "image_url": "https://s3-media3.fl.yelpcdn.com/bphoto/NioVP50BhH5S5aZ37NktuQ/o.jpg", "is_closed": false, "url": "https://www.yelp.com/biz/taco-bell-madison-heights-5?adjust_creative=6H8lmVuwW0ASiCP-qa0vsQ&utm_campaign=yelp_api_v3&utm_medium=api_v3_business_search&utm_source=6H8lmVuwW0ASiCP-qa0vsQ", "review_count": 1, "categories": [{"alias": "mexican", "title": "Mexican"}, {"alias": "hotdogs", "title": "Fast Food"}], "rating": 3.0, "coordinates": {"latitude": 37.42363, "longitude": -79.12478}, "transactions": ["delivery"], "location": {"address1": "5014 S. Amherst Hwy", "address2": null, "address3": null, "city": "Madison Heights", "zip_code": "24572", "country": "US", "state": "VA", "display_address": ["5014 S. Amherst Hwy", "Madison Heights, VA 24572"]}, "phone": "+14348474940", "display_phone": "(434) 847-4940", "distance": 8073.450147752796}, {"id": "_4E8XBny-kUB7xqs9Wi2Fw", "alias": "brauburgers-forest-4", "name": "Brauburgers", "image_url": "https://s3-media2.fl.yelpcdn.com/bphoto/ZcwPBYN_987VSJGp5nmyHw/o.jpg", "is_closed": false, "url": "https://www.yelp.com/biz/brauburgers-forest-4?adjust_creative=6H8lmVuwW0ASiCP-qa0vsQ&utm_campaign=yelp_api_v3&utm_medium=api_v3_business_search&utm_source=6H8lmVuwW0ASiCP-qa0vsQ", "review_count": 196, "categories": [{"alias": "burgers", "title": "Burgers"}, {"alias": "beerbar", "title": "Beer Bar"}], "rating": 3.5, "coordinates": {"latitude": 37.3685587, "longitude": -79.3011934}, "transactions": [], "price": "$$", "location": {"address1": "1332 Venture Dr", "address2": "Ste A", "address3": "", "city": "Forest", "zip_code": "24551", "country": "US", "state": "VA", "display_address": ["1332 Venture Dr", "Ste A", "Forest, VA 24551"]}, "phone": "+14345252727", "display_phone": "(434) 525-2727", "distance": 9930.209174447906}, {"id": "c8NfXW1DVQtbnl4ZLzIjYg", "alias": "colonial-restaurant-rustburg", "name": "Colonial Restaurant", "image_url": "https://s3-media3.fl.yelpcdn.com/bphoto/zTEigg8BI-ulCC5neZDupg/o.jpg", "is_closed": false, "url": "https://www.yelp.com/biz/colonial-restaurant-rustburg?adjust_creative=6H8lmVuwW0ASiCP-qa0vsQ&utm_campaign=yelp_api_v3&utm_medium=api_v3_business_search&utm_source=6H8lmVuwW0ASiCP-qa0vsQ", "review_count": 42, "categories": [{"alias": "tradamerican", "title": "American (Traditional)"}, {"alias": "bars", "title": "Bars"}], "rating": 4.0, "coordinates": {"latitude": 37.25186, "longitude": -79.18788}, "transactions": ["delivery"], "price": "$", "location": {"address1": "8790 Wards Rd", "address2": "", "address3": "", "city": "Rustburg", "zip_code": "24588", "country": "US", "state": "VA", "display_address": ["8790 Wards Rd", "Rustburg, VA 24588"]}, "phone": "+14348212511", "display_phone": "(434) 821-2511", "distance": 14845.0533446351}, {"id": "jkrOUAYntcSwAhf7iYy3Eg", "alias": "golden-corral-buffet-and-grill-lynchburg", "name": "Golden Corral Buffet & Grill", "image_url": "https://s3-media4.fl.yelpcdn.com/bphoto/qJUbjP2CILqSCR3nXu6Zyg/o.jpg", "is_closed": false, "url": "https://www.yelp.com/biz/golden-corral-buffet-and-grill-lynchburg?adjust_creative=6H8lmVuwW0ASiCP-qa0vsQ&utm_campaign=yelp_api_v3&utm_medium=api_v3_business_search&utm_source=6H8lmVuwW0ASiCP-qa0vsQ", "review_count": 28, "categories": [{"alias": "buffets", "title": "Buffets"}, {"alias": "tradamerican", "title": "American (Traditional)"}], "rating": 3.0, "coordinates": {"latitude": 37.34785, "longitude": -79.18578}, "transactions": ["pickup", "delivery"], "price": "$$", "location": {"address1": "4005 Wards Rd", "address2": "", "address3": "", "city": "Lynchburg", "zip_code": "24502", "country": "US", "state": "VA", "display_address": ["4005 Wards Rd", "Lynchburg, VA 24502"]}, "phone": "+14348326440", "display_phone": "(434) 832-6440", "distance": 4204.565396813963}, {"id": "5gMDlEEjXWVbpal8gMkadQ", "alias": "taco-bell-lynchburg-4", "name": "Taco Bell", "image_url": "https://s3-media1.fl.yelpcdn.com/bphoto/O0u-IQJPL77EgkM3eSMBJQ/o.jpg", "is_closed": false, "url": "https://www.yelp.com/biz/taco-bell-lynchburg-4?adjust_creative=6H8lmVuwW0ASiCP-qa0vsQ&utm_campaign=yelp_api_v3&utm_medium=api_v3_business_search&utm_source=6H8lmVuwW0ASiCP-qa0vsQ", "review_count": 8, "categories": [{"alias": "mexican", "title": "Mexican"}, {"alias": "hotdogs", "title": "Fast Food"}], "rating": 2.0, "coordinates": {"latitude": 37.4117191934983, "longitude": -79.212937541306}, "transactions": ["delivery"], "price": "$", "location": {"address1": "3270 Old Forest Rd", "address2": "", "address3": null, "city": "Lynchburg", "zip_code": "24501", "country": "US", "state": "VA", "display_address": ["3270 Old Forest Rd", "Lynchburg, VA 24501"]}, "phone": "+14349411453", "display_phone": "(434) 941-1453", "distance": 3519.3712537339916}, {"id": "qj717Ltm7cw0DTY2aODuOA", "alias": "crisp-forest", "name": "Crisp", "image_url": "https://s3-media2.fl.yelpcdn.com/bphoto/QArSPtG5a7TZLOf0fWOfYA/o.jpg", "is_closed": false, "url": "https://www.yelp.com/biz/crisp-forest?adjust_creative=6H8lmVuwW0ASiCP-qa0vsQ&utm_campaign=yelp_api_v3&utm_medium=api_v3_business_search&utm_source=6H8lmVuwW0ASiCP-qa0vsQ", "review_count": 16, "categories": [{"alias": "salad", "title": "Salad"}, {"alias": "juicebars", "title": "Juice Bars & Smoothies"}], "rating": 4.0, "coordinates": {"latitude": 37.37721, "longitude": -79.24693}, "transactions": ["pickup", "delivery"], "location": {"address1": "18013 Forest Rd", "address2": "Ste A-01", "address3": "", "city": "Forest", "zip_code": "24551", "country": "US", "state": "VA", "display_address": ["18013 Forest Rd", "Ste A-01", "Forest, VA 24551"]}, "phone": "+14343868776", "display_phone": "(434) 386-8776", "distance": 5029.6624577905895}, {"id": "3fymsktfhDVAo5pEMVmkIA", "alias": "sheetz-lynchburg-4", "name": "Sheetz", "image_url": "https://s3-media2.fl.yelpcdn.com/bphoto/C4S71BUCGWCC62tQ3QkxCg/o.jpg", "is_closed": false, "url": "https://www.yelp.com/biz/sheetz-lynchburg-4?adjust_creative=6H8lmVuwW0ASiCP-qa0vsQ&utm_campaign=yelp_api_v3&utm_medium=api_v3_business_search&utm_source=6H8lmVuwW0ASiCP-qa0vsQ", "review_count": 14, "categories": [{"alias": "convenience", "title": "Convenience Stores"}], "rating": 3.5, "coordinates": {"latitude": 37.349362790858066, "longitude": -79.1848766}, "transactions": ["delivery"], "price": "$", "location": {"address1": "3927 Wards Rd", "address2": null, "address3": null, "city": "Lynchburg", "zip_code": "24502", "country": "US", "state": "VA", "display_address": ["3927 Wards Rd", "Lynchburg, VA 24502"]}, "phone": "+14342395551", "display_phone": "(434) 239-5551", "distance": 4040.4551579174395}, {"id": "pEmXVT6INsKGhbxpFODDdg", "alias": "vinnys-italian-grill-and-pizzeria-lynchburg-3", "name": "Vinny's Italian Grill & Pizzeria", "image_url": "https://s3-media3.fl.yelpcdn.com/bphoto/l5orV6kov2R87JCyyFTkYA/o.jpg", "is_closed": false, "url": "https://www.yelp.com/biz/vinnys-italian-grill-and-pizzeria-lynchburg-3?adjust_creative=6H8lmVuwW0ASiCP-qa0vsQ&utm_campaign=yelp_api_v3&utm_medium=api_v3_business_search&utm_source=6H8lmVuwW0ASiCP-qa0vsQ", "review_count": 84, "categories": [{"alias": "italian", "title": "Italian"}], "rating": 3.5, "coordinates": {"latitude": 37.34672, "longitude": -79.18825}, "transactions": ["pickup", "delivery"], "price": "$$", "location": {"address1": "4018 Wards Rd", "address2": "", "address3": "", "city": "Lynchburg", "zip_code": "24502", "country": "US", "state": "VA", "display_address": ["4018 Wards Rd", "Lynchburg, VA 24502"]}, "phone": "+14344554338", "display_phone": "(434) 455-4338", "distance": 4311.8912930636125}, {"id": "Mr2o_8I2bHJ-C4HfaMBqaA", "alias": "yamazato-japanese-restaurant-lynchburg", "name": "Yamazato Japanese restaurant", "image_url": "", "is_closed": false, "url": "https://www.yelp.com/biz/yamazato-japanese-restaurant-lynchburg?adjust_creative=6H8lmVuwW0ASiCP-qa0vsQ&utm_campaign=yelp_api_v3&utm_medium=api_v3_business_search&utm_source=6H8lmVuwW0ASiCP-qa0vsQ", "review_count": 7, "categories": [{"alias": "japanese", "title": "Japanese"}], "rating": 3.5, "coordinates": {"latitude": 37.3350756084621, "longitude": -79.2442405968904}, "transactions": ["pickup", "delivery"], "location": {"address1": "21039 Timberlake Rd", "address2": "", "address3": null, "city": "Lynchburg", "zip_code": "24502", "country": "US", "state": "VA", "display_address": ["21039 Timberlake Rd", "Lynchburg, VA 24502"]}, "phone": "+14342379557", "display_phone": "(434) 237-9557", "distance": 7320.352274894846}, {"id": "XUSf4_bDtpmMQs3fuxHN3w", "alias": "sheetz-forest-4", "name": "Sheetz", "image_url": "https://s3-media2.fl.yelpcdn.com/bphoto/GpeX3ZgvC_V59Uvff8_fcA/o.jpg", "is_closed": false, "url": "https://www.yelp.com/biz/sheetz-forest-4?adjust_creative=6H8lmVuwW0ASiCP-qa0vsQ&utm_campaign=yelp_api_v3&utm_medium=api_v3_business_search&utm_source=6H8lmVuwW0ASiCP-qa0vsQ", "review_count": 6, "categories": [{"alias": "servicestations", "title": "Gas Stations"}, {"alias": "convenience", "title": "Convenience Stores"}], "rating": 3.5, "coordinates": {"latitude": 37.3051867, "longitude": -79.3076919}, "transactions": ["delivery"], "price": "$", "location": {"address1": "12259 E Lynchburg Salem Tpke", "address2": "", "address3": "", "city": "FOREST", "zip_code": "24551", "country": "US", "state": "VA", "display_address": ["12259 E Lynchburg Salem Tpke", "FOREST, VA 24551"]}, "phone": "+14345349405", "display_phone": "(434) 534-9405", "distance": 13647.743355376248}, {"id": "inTBg5FGa42BKkignG09wg", "alias": "the-lunch-box-and-catering-rustburg", "name": "The Lunch Box and Catering", "image_url": "https://s3-media2.fl.yelpcdn.com/bphoto/PsGg32ny_MmyqztgYO5ZZA/o.jpg", "is_closed": false, "url": "https://www.yelp.com/biz/the-lunch-box-and-catering-rustburg?adjust_creative=6H8lmVuwW0ASiCP-qa0vsQ&utm_campaign=yelp_api_v3&utm_medium=api_v3_business_search&utm_source=6H8lmVuwW0ASiCP-qa0vsQ", "review_count": 5, "categories": [{"alias": "sandwiches", "title": "Sandwiches"}, {"alias": "desserts", "title": "Desserts"}, {"alias": "customcakes", "title": "Custom Cakes"}], "rating": 5.0, "coordinates": {"latitude": 37.2744777, "longitude": -79.1045832}, "transactions": ["pickup"], "location": {"address1": "546 Village Hwy", "address2": null, "address3": null, "city": "Rustburg", "zip_code": "24588", "country": "US", "state": "VA", "display_address": ["546 Village Hwy", "Rustburg, VA 24588"]}, "phone": "+14343321415", "display_phone": "(434) 332-1415", "distance": 14500.487351984344}, {"id": "IPPwR3q1XJTQvQFjisz3hQ", "alias": "la-caretta-lynchburg", "name": "La Caretta", "image_url": "https://s3-media2.fl.yelpcdn.com/bphoto/yK0f0xoy8f-cvCJ4lyNKZw/o.jpg", "is_closed": false, "url": "https://www.yelp.com/biz/la-caretta-lynchburg?adjust_creative=6H8lmVuwW0ASiCP-qa0vsQ&utm_campaign=yelp_api_v3&utm_medium=api_v3_business_search&utm_source=6H8lmVuwW0ASiCP-qa0vsQ", "review_count": 39, "categories": [{"alias": "mexican", "title": "Mexican"}], "rating": 4.0, "coordinates": {"latitude": 37.41177, "longitude": -79.17281}, "transactions": ["delivery"], "price": "$", "location": {"address1": "2245 Langhorne Rd", "address2": "", "address3": "", "city": "Lynchburg", "zip_code": "24501", "country": "US", "state": "VA", "display_address": ["2245 Langhorne Rd", "Lynchburg, VA 24501"]}, "phone": "+14345286800", "display_phone": "(434) 528-6800", "distance": 3347.205766779542}, {"id": "tuD7wf0J8PNWoBJeTVI7aQ", "alias": "firehouse-subs-lynchburg", "name": "Firehouse Subs", "image_url": "https://s3-media2.fl.yelpcdn.com/bphoto/HmQp0eLwR9CGMkVNjklT7Q/o.jpg", "is_closed": false, "url": "https://www.yelp.com/biz/firehouse-subs-lynchburg?adjust_creative=6H8lmVuwW0ASiCP-qa0vsQ&utm_campaign=yelp_api_v3&utm_medium=api_v3_business_search&utm_source=6H8lmVuwW0ASiCP-qa0vsQ", "review_count": 17, "categories": [{"alias": "sandwiches", "title": "Sandwiches"}, {"alias": "hotdogs", "title": "Fast Food"}, {"alias": "delis", "title": "Delis"}], "rating": 4.0, "coordinates": {"latitude": 37.34664464135125, "longitude": -79.18800122675422}, "transactions": ["pickup", "delivery"], "price": "$$", "location": {"address1": "4018 Wards Rd", "address2": null, "address3": null, "city": "Lynchburg", "zip_code": "24502", "country": "US", "state": "VA", "display_address": ["4018 Wards Rd", "Lynchburg, VA 24502"]}, "phone": "+14342372290", "display_phone": "(434) 237-2290", "distance": 4315.568907006784}, {"id": "hi_7bx4q8NtvUI2VpNLJRg", "alias": "oishii-japanese-hibachi-and-sushi-lynchburg", "name": "Oishii! Japanese Hibachi & Sushi", "image_url": "https://s3-media3.fl.yelpcdn.com/bphoto/pTa2we8646aApaWvyTcq5Q/o.jpg", "is_closed": false, "url": "https://www.yelp.com/biz/oishii-japanese-hibachi-and-sushi-lynchburg?adjust_creative=6H8lmVuwW0ASiCP-qa0vsQ&utm_campaign=yelp_api_v3&utm_medium=api_v3_business_search&utm_source=6H8lmVuwW0ASiCP-qa0vsQ", "review_count": 73, "categories": [{"alias": "japanese", "title": "Japanese"}, {"alias": "sushi", "title": "Sushi Bars"}], "rating": 4.5, "coordinates": {"latitude": 37.329493, "longitude": -79.249629}, "transactions": ["delivery"], "price": "$", "location": {"address1": "3412 Waterlick Rd", "address2": null, "address3": "", "city": "Lynchburg", "zip_code": "24502", "country": "US", "state": "VA", "display_address": ["3412 Waterlick Rd", "Lynchburg, VA 24502"]}, "phone": "+14342398828", "display_phone": "(434) 239-8828", "distance": 8102.106700993489}, {"id": "19nv5FKhbd2OJKyuF1LHLA", "alias": "subway-lynchburg-26", "name": "Subway", "image_url": "https://s3-media3.fl.yelpcdn.com/bphoto/htQ7APTMc2CI1UuNwrMTtQ/o.jpg", "is_closed": false, "url": "https://www.yelp.com/biz/subway-lynchburg-26?adjust_creative=6H8lmVuwW0ASiCP-qa0vsQ&utm_campaign=yelp_api_v3&utm_medium=api_v3_business_search&utm_source=6H8lmVuwW0ASiCP-qa0vsQ", "review_count": 7, "categories": [{"alias": "sandwiches", "title": "Sandwiches"}], "rating": 3.0, "coordinates": {"latitude": 37.3543698, "longitude": -79.2261642}, "transactions": ["pickup", "delivery"], "price": "$", "location": {"address1": "7224-7807 Timberlake Rd", "address2": "", "address3": "", "city": "Lynchburg", "zip_code": "24502", "country": "US", "state": "VA", "display_address": ["7224-7807 Timberlake Rd", "Lynchburg, VA 24502"]}, "phone": "+14344552507", "display_phone": "(434) 455-2507", "distance": 4652.945815992994}, {"id": "WFa1MR3aqPPZ7eaJMLyMsw", "alias": "la-carreta-mexican-restaurant-lynchburg-3", "name": "La Carreta Mexican Restaurant", "image_url": "https://s3-media4.fl.yelpcdn.com/bphoto/1jgAFueXgBwZ0AT28Ie_IQ/o.jpg", "is_closed": false, "url": "https://www.yelp.com/biz/la-carreta-mexican-restaurant-lynchburg-3?adjust_creative=6H8lmVuwW0ASiCP-qa0vsQ&utm_campaign=yelp_api_v3&utm_medium=api_v3_business_search&utm_source=6H8lmVuwW0ASiCP-qa0vsQ", "review_count": 60, "categories": [{"alias": "mexican", "title": "Mexican"}], "rating": 4.0, "coordinates": {"latitude": 37.34228867304072, "longitude": -79.19054658460854}, "transactions": ["delivery"], "price": "$", "location": {"address1": "120 L Simons Run", "address2": "", "address3": "", "city": "Lynchburg", "zip_code": "24502", "country": "US", "state": "VA", "display_address": ["120 L Simons Run", "Lynchburg, VA 24502"]}, "phone": "+14342374009", "display_phone": "(434) 237-4009", "distance": 4792.765256747023}, {"id": "cmaam0d0MUdQK2mtAQm5nA", "alias": "jersey-mikes-subs-lynchburg-4", "name": "Jersey Mike's Subs", "image_url": "https://s3-media1.fl.yelpcdn.com/bphoto/nCAmwzCkNIDrWbi7dErkZQ/o.jpg", "is_closed": false, "url": "https://www.yelp.com/biz/jersey-mikes-subs-lynchburg-4?adjust_creative=6H8lmVuwW0ASiCP-qa0vsQ&utm_campaign=yelp_api_v3&utm_medium=api_v3_business_search&utm_source=6H8lmVuwW0ASiCP-qa0vsQ", "review_count": 20, "categories": [{"alias": "sandwiches", "title": "Sandwiches"}, {"alias": "hotdogs", "title": "Fast Food"}, {"alias": "delis", "title": "Delis"}], "rating": 3.5, "coordinates": {"latitude": 37.39802, "longitude": -79.22163}, "transactions": ["pickup", "delivery"], "price": "$$", "location": {"address1": "3901 Old Forest Rd", "address2": "Ste 105C", "address3": "", "city": "Lynchburg", "zip_code": "24501", "country": "US", "state": "VA", "display_address": ["3901 Old Forest Rd", "Ste 105C", "Lynchburg, VA 24501"]}, "phone": "+14343858100", "display_phone": "(434) 385-8100", "distance": 3062.316198668273}, {"id": "AZ69RbXUd8wJgBZJVSX53Q", "alias": "o-charleys-restaurant-and-bar-lynchburg", "name": "O'Charley's Restaurant & Bar", "image_url": "https://s3-media3.fl.yelpcdn.com/bphoto/WuFww6yiJjUkZiUUNL0wbg/o.jpg", "is_closed": false, "url": "https://www.yelp.com/biz/o-charleys-restaurant-and-bar-lynchburg?adjust_creative=6H8lmVuwW0ASiCP-qa0vsQ&utm_campaign=yelp_api_v3&utm_medium=api_v3_business_search&utm_source=6H8lmVuwW0ASiCP-qa0vsQ", "review_count": 64, "categories": [{"alias": "burgers", "title": "Burgers"}, {"alias": "tradamerican", "title": "American (Traditional)"}, {"alias": "southern", "title": "Southern"}], "rating": 2.5, "coordinates": {"latitude": 37.344201, "longitude": -79.189836}, "transactions": ["pickup", "delivery"], "price": "$$", "location": {"address1": "4042 Wards Rd", "address2": "", "address3": "", "city": "Lynchburg", "zip_code": "24502", "country": "US", "state": "VA", "display_address": ["4042 Wards Rd", "Lynchburg, VA 24502"]}, "phone": "+14348328282", "display_phone": "(434) 832-8282", "distance": 4580.896937322798}, {"id": "jzlG47lhDAiulmynUqXecQ", "alias": "panera-bread-lynchburg-3", "name": "Panera Bread", "image_url": "https://s3-media1.fl.yelpcdn.com/bphoto/zEkdQTkFYGNLv95g2qYW6g/o.jpg", "is_closed": false, "url": "https://www.yelp.com/biz/panera-bread-lynchburg-3?adjust_creative=6H8lmVuwW0ASiCP-qa0vsQ&utm_campaign=yelp_api_v3&utm_medium=api_v3_business_search&utm_source=6H8lmVuwW0ASiCP-qa0vsQ", "review_count": 47, "categories": [{"alias": "salad", "title": "Salad"}, {"alias": "soup", "title": "Soup"}, {"alias": "sandwiches", "title": "Sandwiches"}], "rating": 2.0, "coordinates": {"latitude": 37.3979991, "longitude": -79.2216491}, "transactions": ["pickup", "delivery"], "price": "$$", "location": {"address1": "3901 Old Forest Rd", "address2": "", "address3": "", "city": "Lynchburg", "zip_code": "24501", "country": "US", "state": "VA", "display_address": ["3901 Old Forest Rd", "Lynchburg, VA 24501"]}, "phone": "+14343851979", "display_phone": "(434) 385-1979", "distance": 3062.7516053684167}, {"id": "JzfoP8-modYCLdyQHMqqyQ", "alias": "montana-plains-bakery-lynchburg-2", "name": "Montana Plains Bakery", "image_url": "https://s3-media1.fl.yelpcdn.com/bphoto/O37QOoPLwxrv84NkdryTfg/o.jpg", "is_closed": false, "url": "https://www.yelp.com/biz/montana-plains-bakery-lynchburg-2?adjust_creative=6H8lmVuwW0ASiCP-qa0vsQ&utm_campaign=yelp_api_v3&utm_medium=api_v3_business_search&utm_source=6H8lmVuwW0ASiCP-qa0vsQ", "review_count": 37, "categories": [{"alias": "bakeries", "title": "Bakeries"}], "rating": 4.0, "coordinates": {"latitude": 37.35728, "longitude": -79.24044}, "transactions": ["pickup", "delivery"], "price": "$$$", "location": {"address1": "102 Tradewynd Dr", "address2": "", "address3": "", "city": "Lynchburg", "zip_code": "24502", "country": "US", "state": "VA", "display_address": ["102 Tradewynd Dr", "Lynchburg, VA 24502"]}, "phone": "+14342391779", "display_phone": "(434) 239-1779", "distance": 5384.313494948868}, {"id": "dXaDoNnqjUvfxUQ67CiV3w", "alias": "arbys-madison-heights-2", "name": "Arby's", "image_url": "https://s3-media3.fl.yelpcdn.com/bphoto/4ErwTprNdBNXVpc22WgdOQ/o.jpg", "is_closed": false, "url": "https://www.yelp.com/biz/arbys-madison-heights-2?adjust_creative=6H8lmVuwW0ASiCP-qa0vsQ&utm_campaign=yelp_api_v3&utm_medium=api_v3_business_search&utm_source=6H8lmVuwW0ASiCP-qa0vsQ", "review_count": 7, "categories": [{"alias": "hotdogs", "title": "Fast Food"}, {"alias": "sandwiches", "title": "Sandwiches"}], "rating": 2.5, "coordinates": {"latitude": 37.4418716, "longitude": -79.1194305}, "transactions": ["pickup", "delivery"], "price": "$", "location": {"address1": "4783 South Amherst Hwy", "address2": "", "address3": "", "city": "Madison Heights", "zip_code": "24572", "country": "US", "state": "VA", "display_address": ["4783 South Amherst Hwy", "Madison Heights, VA 24572"]}, "phone": "+14345283546", "display_phone": "(434) 528-3546", "distance": 8900.223897170612}, {"id": "Na_E-JXkOkzsyLNw7Q04Jg", "alias": "sheetz-madison-heights", "name": "Sheetz", "image_url": "", "is_closed": false, "url": "https://www.yelp.com/biz/sheetz-madison-heights?adjust_creative=6H8lmVuwW0ASiCP-qa0vsQ&utm_campaign=yelp_api_v3&utm_medium=api_v3_business_search&utm_source=6H8lmVuwW0ASiCP-qa0vsQ", "review_count": 3, "categories": [{"alias": "servicestations", "title": "Gas Stations"}, {"alias": "convenience", "title": "Convenience Stores"}], "rating": 3.0, "coordinates": {"latitude": 37.46620779567002, "longitude": -79.11818190000001}, "transactions": ["delivery"], "price": "$", "location": {"address1": "4089 S Amherst Hwy", "address2": "", "address3": "", "city": "Madison Heights", "zip_code": "24572", "country": "US", "state": "VA", "display_address": ["4089 S Amherst Hwy", "Madison Heights, VA 24572"]}, "phone": "+14349292222", "display_phone": "(434) 929-2222", "distance": 11041.126329750574}, {"id": "6jNnKqnBFwkIr4aP8QUfSQ", "alias": "lolas-mexican-cuisine-and-cantina-lynchburg", "name": "Lola's Mexican Cuisine & Cantina", "image_url": "https://s3-media4.fl.yelpcdn.com/bphoto/jlQrO8w2jjnvAGcRjothtg/o.jpg", "is_closed": false, "url": "https://www.yelp.com/biz/lolas-mexican-cuisine-and-cantina-lynchburg?adjust_creative=6H8lmVuwW0ASiCP-qa0vsQ&utm_campaign=yelp_api_v3&utm_medium=api_v3_business_search&utm_source=6H8lmVuwW0ASiCP-qa0vsQ", "review_count": 58, "categories": [{"alias": "mexican", "title": "Mexican"}], "rating": 4.0, "coordinates": {"latitude": 37.4143295, "longitude": -79.2073212}, "transactions": ["delivery"], "price": "$$", "location": {"address1": "3025 Old Forest Rd", "address2": "", "address3": "", "city": "Lynchburg", "zip_code": "24501", "country": "US", "state": "VA", "display_address": ["3025 Old Forest Rd", "Lynchburg, VA 24501"]}, "phone": "+14343851600", "display_phone": "(434) 385-1600", "distance": 3532.560508184273}, {"id": "GSX8EY4IBni0-4nqGUeOhA", "alias": "fiesta-tapatia-mexican-restaurant-forest", "name": "Fiesta Tapatia Mexican Restaurant", "image_url": "https://s3-media1.fl.yelpcdn.com/bphoto/U5NAmqVOuJMYsCcz5GDyaQ/o.jpg", "is_closed": false, "url": "https://www.yelp.com/biz/fiesta-tapatia-mexican-restaurant-forest?adjust_creative=6H8lmVuwW0ASiCP-qa0vsQ&utm_campaign=yelp_api_v3&utm_medium=api_v3_business_search&utm_source=6H8lmVuwW0ASiCP-qa0vsQ", "review_count": 59, "categories": [{"alias": "mexican", "title": "Mexican"}], "rating": 3.5, "coordinates": {"latitude": 37.3756, "longitude": -79.2499}, "transactions": ["delivery", "pickup"], "price": "$", "location": {"address1": "17860 Forest Rd", "address2": null, "address3": null, "city": "Forest", "zip_code": "24551", "country": "US", "state": "VA", "display_address": ["17860 Forest Rd", "Forest, VA 24551"]}, "phone": "+14343858823", "display_phone": "(434) 385-8823", "distance": 5341.319477223942}, {"id": "QP953wVg1rBHioxgtNoT3A", "alias": "subway-lynchburg-23", "name": "Subway", "image_url": "https://s3-media2.fl.yelpcdn.com/bphoto/hv5rmAlvyds6iAOgFp0RZg/o.jpg", "is_closed": false, "url": "https://www.yelp.com/biz/subway-lynchburg-23?adjust_creative=6H8lmVuwW0ASiCP-qa0vsQ&utm_campaign=yelp_api_v3&utm_medium=api_v3_business_search&utm_source=6H8lmVuwW0ASiCP-qa0vsQ", "review_count": 4, "categories": [{"alias": "sandwiches", "title": "Sandwiches"}], "rating": 1.5, "coordinates": {"latitude": 37.4013107918631, "longitude": -79.1685211766455}, "transactions": [], "price": "$", "location": {"address1": "2509 Memorial Ave", "address2": null, "address3": null, "city": "Lynchburg", "zip_code": "24501", "country": "US", "state": "VA", "display_address": ["2509 Memorial Ave", "Lynchburg, VA 24501"]}, "phone": "+14348474631", "display_phone": "(434) 847-4631", "distance": 2648.9003045714403}, {"id": "SRWgJS4SEGiGm9BGXAfDkg", "alias": "chick-fil-a-lynchburg-4", "name": "Chick-fil-A", "image_url": "https://s3-media2.fl.yelpcdn.com/bphoto/jqOS6Ktvp8xFcwv8-Tv25g/o.jpg", "is_closed": false, "url": "https://www.yelp.com/biz/chick-fil-a-lynchburg-4?adjust_creative=6H8lmVuwW0ASiCP-qa0vsQ&utm_campaign=yelp_api_v3&utm_medium=api_v3_business_search&utm_source=6H8lmVuwW0ASiCP-qa0vsQ", "review_count": 2, "categories": [{"alias": "hotdogs", "title": "Fast Food"}, {"alias": "chickenshop", "title": "Chicken Shop"}, {"alias": "salad", "title": "Salad"}], "rating": 3.0, "coordinates": {"latitude": 37.3579463, "longitude": -79.173224}, "transactions": [], "price": "$", "location": {"address1": "1971 University Blvd Tilley Student Ctr", "address2": "", "address3": "Tilley Student Center", "city": "Lynchburg", "zip_code": "24502", "country": "US", "state": "VA", "display_address": ["1971 University Blvd Tilley Student Ctr", "Tilley Student Center", "Lynchburg, VA 24502"]}, "phone": "+14345822262", "display_phone": "(434) 582-2262", "distance": 3425.223384959931}, {"id": "nMs6IEWHCAVv8BOMp32brw", "alias": "dominos-pizza-lynchburg-2", "name": "Domino's Pizza", "image_url": "https://s3-media4.fl.yelpcdn.com/bphoto/Rgq5t-ChCbX331O-iBGyzA/o.jpg", "is_closed": false, "url": "https://www.yelp.com/biz/dominos-pizza-lynchburg-2?adjust_creative=6H8lmVuwW0ASiCP-qa0vsQ&utm_campaign=yelp_api_v3&utm_medium=api_v3_business_search&utm_source=6H8lmVuwW0ASiCP-qa0vsQ", "review_count": 9, "categories": [{"alias": "pizza", "title": "Pizza"}, {"alias": "chicken_wings", "title": "Chicken Wings"}, {"alias": "sandwiches", "title": "Sandwiches"}], "rating": 2.0, "coordinates": {"latitude": 37.3497505, "longitude": -79.1864471}, "transactions": [], "price": "$", "location": {"address1": "3920 Wards Rd", "address2": "", "address3": "", "city": "Lynchburg", "zip_code": "24502", "country": "US", "state": "VA", "display_address": ["3920 Wards Rd", "Lynchburg, VA 24502"]}, "phone": "+14342377788", "display_phone": "(434) 237-7788", "distance": 3963.051794350224}, {"id": "vgBxA-OCiestbukHz2Fpsg", "alias": "applebees-grill-bar-lynchburg", "name": "Applebee's Grill + Bar", "image_url": "https://s3-media2.fl.yelpcdn.com/bphoto/ltZ0ynPRfIht9Jjzuxo2Ng/o.jpg", "is_closed": false, "url": "https://www.yelp.com/biz/applebees-grill-bar-lynchburg?adjust_creative=6H8lmVuwW0ASiCP-qa0vsQ&utm_campaign=yelp_api_v3&utm_medium=api_v3_business_search&utm_source=6H8lmVuwW0ASiCP-qa0vsQ", "review_count": 25, "categories": [{"alias": "tradamerican", "title": "American (Traditional)"}, {"alias": "sportsbars", "title": "Sports Bars"}, {"alias": "burgers", "title": "Burgers"}], "rating": 2.0, "coordinates": {"latitude": 37.4125, "longitude": -79.2118}, "transactions": [], "price": "$$", "location": {"address1": "3219 Old Forest Rd", "address2": "", "address3": "", "city": "Lynchburg", "zip_code": "24501", "country": "US", "state": "VA", "display_address": ["3219 Old Forest Rd", "Lynchburg, VA 24501"]}, "phone": "+14343858055", "display_phone": "(434) 385-8055", "distance": 3538.274989888928}, {"id": "b18ZRQLYQaaKhLuysGLuEQ", "alias": "wasabi-japanese-steakhouse-and-sushi-bar-lynchburg", "name": "Wasabi Japanese Steakhouse & Sushi Bar", "image_url": "https://s3-media1.fl.yelpcdn.com/bphoto/EvxkeL29QBTs68ewP3os5Q/o.jpg", "is_closed": false, "url": "https://www.yelp.com/biz/wasabi-japanese-steakhouse-and-sushi-bar-lynchburg?adjust_creative=6H8lmVuwW0ASiCP-qa0vsQ&utm_campaign=yelp_api_v3&utm_medium=api_v3_business_search&utm_source=6H8lmVuwW0ASiCP-qa0vsQ", "review_count": 140, "categories": [{"alias": "japanese", "title": "Japanese"}, {"alias": "sushi", "title": "Sushi Bars"}, {"alias": "seafood", "title": "Seafood"}], "rating": 2.5, "coordinates": {"latitude": 37.359765094283, "longitude": -79.1683647573394}, "transactions": ["delivery"], "price": "$$", "location": {"address1": "3700 Candlers Mountain Rd", "address2": "Ste Z", "address3": "", "city": "Lynchburg", "zip_code": "24502", "country": "US", "state": "VA", "display_address": ["3700 Candlers Mountain Rd", "Ste Z", "Lynchburg, VA 24502"]}, "phone": "+14348471288", "display_phone": "(434) 847-1288", "distance": 3472.5892170990414}, {"id": "5zwHibxn7E8CCF9Z5LhsEQ", "alias": "loris-italian-grill-and-pizzeria-forest-2", "name": "Lori's Italian Grill & Pizzeria", "image_url": "https://s3-media2.fl.yelpcdn.com/bphoto/dv8MSgisCza3RxxGpIT-uw/o.jpg", "is_closed": false, "url": "https://www.yelp.com/biz/loris-italian-grill-and-pizzeria-forest-2?adjust_creative=6H8lmVuwW0ASiCP-qa0vsQ&utm_campaign=yelp_api_v3&utm_medium=api_v3_business_search&utm_source=6H8lmVuwW0ASiCP-qa0vsQ", "review_count": 61, "categories": [{"alias": "italian", "title": "Italian"}, {"alias": "pizza", "title": "Pizza"}], "rating": 4.0, "coordinates": {"latitude": 37.37199, "longitude": -79.3045}, "transactions": ["delivery"], "price": "$$", "location": {"address1": "1208 Perrowville Rd", "address2": "Ste A", "address3": "", "city": "Forest", "zip_code": "24551", "country": "US", "state": "VA", "display_address": ["1208 Perrowville Rd", "Ste A", "Forest, VA 24551"]}, "phone": "+14345250065", "display_phone": "(434) 525-0065", "distance": 10154.11000531143}, {"id": "Hnlxh6SB_3z_afMfljbzIA", "alias": "jo-jo-pizza-lynchburg-lynchburg", "name": "Jo Jo Pizza Lynchburg", "image_url": "https://s3-media3.fl.yelpcdn.com/bphoto/KZio60rh9wLi7RJl_bVnLA/o.jpg", "is_closed": false, "url": "https://www.yelp.com/biz/jo-jo-pizza-lynchburg-lynchburg?adjust_creative=6H8lmVuwW0ASiCP-qa0vsQ&utm_campaign=yelp_api_v3&utm_medium=api_v3_business_search&utm_source=6H8lmVuwW0ASiCP-qa0vsQ", "review_count": 61, "categories": [{"alias": "pizza", "title": "Pizza"}, {"alias": "salad", "title": "Salad"}, {"alias": "chicken_wings", "title": "Chicken Wings"}], "rating": 3.5, "coordinates": {"latitude": 37.4025899, "longitude": -79.18091}, "transactions": ["delivery"], "price": "$$", "location": {"address1": "1400 Lakeside Dr", "address2": "", "address3": "", "city": "Lynchburg", "zip_code": "24501", "country": "US", "state": "VA", "display_address": ["1400 Lakeside Dr", "Lynchburg, VA 24501"]}, "phone": "+14348461308", "display_phone": "(434) 846-1308", "distance": 2086.2423841370282}, {"id": "SSGWbmKCY1yoCd4yLAIf0A", "alias": "red-lobster-lynchburg-2", "name": "Red Lobster", "image_url": "https://s3-media4.fl.yelpcdn.com/bphoto/jZlwdWZmRuSRprYRQKSRNA/o.jpg", "is_closed": false, "url": "https://www.yelp.com/biz/red-lobster-lynchburg-2?adjust_creative=6H8lmVuwW0ASiCP-qa0vsQ&utm_campaign=yelp_api_v3&utm_medium=api_v3_business_search&utm_source=6H8lmVuwW0ASiCP-qa0vsQ", "review_count": 59, "categories": [{"alias": "seafood", "title": "Seafood"}, {"alias": "tradamerican", "title": "American (Traditional)"}], "rating": 3.0, "coordinates": {"latitude": 37.366185, "longitude": -79.174248}, "transactions": ["delivery", "pickup"], "price": "$$", "location": {"address1": "3425 Candlers Mountain Rd", "address2": "", "address3": "", "city": "Lynchburg", "zip_code": "24502", "country": "US", "state": "VA", "display_address": ["3425 Candlers Mountain Rd", "Lynchburg, VA 24502"]}, "phone": "+14348470178", "display_phone": "(434) 847-0178", "distance": 2589.708982203542}, {"id": "SwomLlOy-ydcIN8hVec-zw", "alias": "sheetz-lynchburg-2", "name": "Sheetz", "image_url": "https://s3-media4.fl.yelpcdn.com/bphoto/wwn9guBCvl4RV8zJHXYr0w/o.jpg", "is_closed": false, "url": "https://www.yelp.com/biz/sheetz-lynchburg-2?adjust_creative=6H8lmVuwW0ASiCP-qa0vsQ&utm_campaign=yelp_api_v3&utm_medium=api_v3_business_search&utm_source=6H8lmVuwW0ASiCP-qa0vsQ", "review_count": 11, "categories": [{"alias": "convenience", "title": "Convenience Stores"}, {"alias": "servicestations", "title": "Gas Stations"}], "rating": 3.0, "coordinates": {"latitude": 37.3251937625134, "longitude": -79.1906289}, "transactions": ["delivery"], "price": "$$", "location": {"address1": "14480 Wards Rd", "address2": "", "address3": "", "city": "Lynchburg", "zip_code": "24501", "country": "US", "state": "VA", "display_address": ["14480 Wards Rd", "Lynchburg, VA 24501"]}, "phone": "+14342370929", "display_phone": "(434) 237-0929", "distance": 6693.589431082159}, {"id": "OqUQHO9EU6KQv2yXVr0QdQ", "alias": "subway-lynchburg-20", "name": "Subway", "image_url": "https://s3-media1.fl.yelpcdn.com/bphoto/4avyZxukqEiOBhgPNCUVow/o.jpg", "is_closed": false, "url": "https://www.yelp.com/biz/subway-lynchburg-20?adjust_creative=6H8lmVuwW0ASiCP-qa0vsQ&utm_campaign=yelp_api_v3&utm_medium=api_v3_business_search&utm_source=6H8lmVuwW0ASiCP-qa0vsQ", "review_count": 6, "categories": [{"alias": "sandwiches", "title": "Sandwiches"}], "rating": 1.5, "coordinates": {"latitude": 37.4143447, "longitude": -79.2087643}, "transactions": ["delivery", "pickup"], "price": "$", "location": {"address1": "3035 Old Forest Rd", "address2": null, "address3": null, "city": "Lynchburg", "zip_code": "24501", "country": "US", "state": "VA", "display_address": ["3035 Old Forest Rd", "Lynchburg, VA 24501"]}, "phone": "+14343857294", "display_phone": "(434) 385-7294", "distance": 3588.3565021011095}, {"id": "9oHEO5aixqHfNdzJYuE7Dw", "alias": "jade-palace-lynchburg", "name": "Jade Palace", "image_url": "https://s3-media4.fl.yelpcdn.com/bphoto/xYJgV2OR6qnnJd1d7JbY6w/o.jpg", "is_closed": false, "url": "https://www.yelp.com/biz/jade-palace-lynchburg?adjust_creative=6H8lmVuwW0ASiCP-qa0vsQ&utm_campaign=yelp_api_v3&utm_medium=api_v3_business_search&utm_source=6H8lmVuwW0ASiCP-qa0vsQ", "review_count": 49, "categories": [{"alias": "sushi", "title": "Sushi Bars"}, {"alias": "chinese", "title": "Chinese"}], "rating": 3.5, "coordinates": {"latitude": 37.36137, "longitude": -79.2101799}, "transactions": ["delivery", "pickup"], "price": "$$", "location": {"address1": "7118 Timberlake Rd", "address2": "", "address3": "", "city": "Lynchburg", "zip_code": "24502", "country": "US", "state": "VA", "display_address": ["7118 Timberlake Rd", "Lynchburg, VA 24502"]}, "phone": "+14342396788", "display_phone": "(434) 239-6788", "distance": 3166.917136956258}, {"id": "5lah3qKIdtzkgITNM85ceg", "alias": "macados-lynchburg", "name": "Macado's", "image_url": "https://s3-media1.fl.yelpcdn.com/bphoto/OSoFwElYDbJlc-e8b3eHlA/o.jpg", "is_closed": false, "url": "https://www.yelp.com/biz/macados-lynchburg?adjust_creative=6H8lmVuwW0ASiCP-qa0vsQ&utm_campaign=yelp_api_v3&utm_medium=api_v3_business_search&utm_source=6H8lmVuwW0ASiCP-qa0vsQ", "review_count": 117, "categories": [{"alias": "sandwiches", "title": "Sandwiches"}, {"alias": "bars", "title": "Bars"}, {"alias": "tradamerican", "title": "American (Traditional)"}], "rating": 2.0, "coordinates": {"latitude": 37.35895, "longitude": -79.17084}, "transactions": ["delivery", "pickup"], "price": "$", "location": {"address1": "3744 Candlers Mountain Rd", "address2": "", "address3": "", "city": "Lynchburg", "zip_code": "24502", "country": "US", "state": "VA", "display_address": ["3744 Candlers Mountain Rd", "Lynchburg, VA 24502"]}, "phone": "+14348456464", "display_phone": "(434) 845-6464", "distance": 3445.0141413142014}, {"id": "TnD1DWK71V7VYmNBwZ-bEw", "alias": "subway-lynchburg-24", "name": "Subway", "image_url": "https://s3-media1.fl.yelpcdn.com/bphoto/FHAvYA8UcOOC1Zfvuc05KQ/o.jpg", "is_closed": false, "url": "https://www.yelp.com/biz/subway-lynchburg-24?adjust_creative=6H8lmVuwW0ASiCP-qa0vsQ&utm_campaign=yelp_api_v3&utm_medium=api_v3_business_search&utm_source=6H8lmVuwW0ASiCP-qa0vsQ", "review_count": 3, "categories": [{"alias": "sandwiches", "title": "Sandwiches"}], "rating": 3.5, "coordinates": {"latitude": 37.3856313, "longitude": -79.241856}, "transactions": [], "price": "$", "location": {"address1": "18707 Forest Rd", "address2": "", "address3": "", "city": "Lynchburg", "zip_code": "24502", "country": "US", "state": "VA", "display_address": ["18707 Forest Rd", "Lynchburg, VA 24502"]}, "phone": "+14342372028", "display_phone": "(434) 237-2028", "distance": 4508.637771966128}, {"id": "A8hi40TUI4lPzGFvpF7YsQ", "alias": "cracker-barrel-old-country-store-lynchburg", "name": "Cracker Barrel Old Country Store", "image_url": "https://s3-media2.fl.yelpcdn.com/bphoto/xwPpzr6dtfoo6rNZ4aGjvg/o.jpg", "is_closed": false, "url": "https://www.yelp.com/biz/cracker-barrel-old-country-store-lynchburg?adjust_creative=6H8lmVuwW0ASiCP-qa0vsQ&utm_campaign=yelp_api_v3&utm_medium=api_v3_business_search&utm_source=6H8lmVuwW0ASiCP-qa0vsQ", "review_count": 73, "categories": [{"alias": "southern", "title": "Southern"}, {"alias": "breakfast_brunch", "title": "Breakfast & Brunch"}, {"alias": "tradamerican", "title": "American (Traditional)"}], "rating": 2.5, "coordinates": {"latitude": 37.35493, "longitude": -79.18373}, "transactions": ["delivery"], "price": "$$", "location": {"address1": "3820 Wards Rd", "address2": "", "address3": "", "city": "Lynchburg", "zip_code": "24502", "country": "US", "state": "VA", "display_address": ["3820 Wards Rd", "Lynchburg, VA 24502"]}, "phone": "+14345821940", "display_phone": "(434) 582-1940", "distance": 3444.6168412049983}, {"id": "b3wMigTWkLvMI1tVcPBPMw", "alias": "subway-lynchburg-19", "name": "Subway", "image_url": "https://s3-media3.fl.yelpcdn.com/bphoto/FwkItYdlSPjGKr9Art7Wjw/o.jpg", "is_closed": false, "url": "https://www.yelp.com/biz/subway-lynchburg-19?adjust_creative=6H8lmVuwW0ASiCP-qa0vsQ&utm_campaign=yelp_api_v3&utm_medium=api_v3_business_search&utm_source=6H8lmVuwW0ASiCP-qa0vsQ", "review_count": 3, "categories": [{"alias": "sandwiches", "title": "Sandwiches"}], "rating": 2.5, "coordinates": {"latitude": 37.3478768180643, "longitude": -79.190529}, "transactions": ["delivery", "pickup"], "price": "$", "location": {"address1": "4026 Wards Rd", "address2": "Unit J", "address3": null, "city": "Lynchburg", "zip_code": "24502", "country": "US", "state": "VA", "display_address": ["4026 Wards Rd", "Unit J", "Lynchburg, VA 24502"]}, "phone": "+14342396900", "display_phone": "(434) 239-6900", "distance": 4171.411571421538}, {"id": "ZhoSX9G4EdTVdumEiOq_2w", "alias": "taco-bell-lynchburg-2", "name": "Taco Bell", "image_url": "https://s3-media2.fl.yelpcdn.com/bphoto/-y6PXpxoxHFT2CLmq2bScQ/o.jpg", "is_closed": false, "url": "https://www.yelp.com/biz/taco-bell-lynchburg-2?adjust_creative=6H8lmVuwW0ASiCP-qa0vsQ&utm_campaign=yelp_api_v3&utm_medium=api_v3_business_search&utm_source=6H8lmVuwW0ASiCP-qa0vsQ", "review_count": 18, "categories": [{"alias": "hotdogs", "title": "Fast Food"}, {"alias": "mexican", "title": "Mexican"}], "rating": 2.5, "coordinates": {"latitude": 37.365117, "longitude": -79.178498}, "transactions": ["delivery"], "price": "$", "location": {"address1": "3351 Candlers Mntn Rd", "address2": "", "address3": "", "city": "Lynchburg", "zip_code": "24502", "country": "US", "state": "VA", "display_address": ["3351 Candlers Mntn Rd", "Lynchburg, VA 24502"]}, "phone": "+14348452250", "display_phone": "(434) 845-2250", "distance": 2503.7330134157537}, {"id": "9w8zMv6hEVM0kgtRKSsX8Q", "alias": "marios-pizza-lynchburg", "name": "Mario's Pizza", "image_url": "https://s3-media4.fl.yelpcdn.com/bphoto/yc-f5Jzbw0gVC5RaDccKrg/o.jpg", "is_closed": false, "url": "https://www.yelp.com/biz/marios-pizza-lynchburg?adjust_creative=6H8lmVuwW0ASiCP-qa0vsQ&utm_campaign=yelp_api_v3&utm_medium=api_v3_business_search&utm_source=6H8lmVuwW0ASiCP-qa0vsQ", "review_count": 17, "categories": [{"alias": "pizza", "title": "Pizza"}], "rating": 1.5, "coordinates": {"latitude": 37.43456, "longitude": -79.16756}, "transactions": ["delivery", "pickup"], "price": "$$", "location": {"address1": "2309 Bedford Ave", "address2": "", "address3": "", "city": "Lynchburg", "zip_code": "24503", "country": "US", "state": "VA", "display_address": ["2309 Bedford Ave", "Lynchburg, VA 24503"]}, "phone": "+14348457444", "display_phone": "(434) 845-7444", "distance": 5835.831680554651}, {"id": "1lO4BQF2Wj6MBVhiWC0-RA", "alias": "marcos-pizza-forest", "name": "Marco's Pizza", "image_url": "https://s3-media2.fl.yelpcdn.com/bphoto/LujBhNdZwtvUG5ADFUp7wQ/o.jpg", "is_closed": false, "url": "https://www.yelp.com/biz/marcos-pizza-forest?adjust_creative=6H8lmVuwW0ASiCP-qa0vsQ&utm_campaign=yelp_api_v3&utm_medium=api_v3_business_search&utm_source=6H8lmVuwW0ASiCP-qa0vsQ", "review_count": 21, "categories": [{"alias": "pizza", "title": "Pizza"}], "rating": 3.0, "coordinates": {"latitude": 37.3664, "longitude": -79.25923}, "transactions": ["delivery", "pickup"], "location": {"address1": "16955 Forest Rd", "address2": "", "address3": null, "city": "Forest", "zip_code": "24551", "country": "US", "state": "VA", "display_address": ["16955 Forest Rd", "Forest, VA 24551"]}, "phone": "+14344550010", "display_phone": "(434) 455-0010", "distance": 6402.602588346987}, {"id": "1lO4BQF2Wj6MBVhiWC0-RA", "alias": "marcos-pizza-forest", "name": "Marco's Pizza", "image_url": "https://s3-media2.fl.yelpcdn.com/bphoto/LujBhNdZwtvUG5ADFUp7wQ/o.jpg", "is_closed": false, "url": "https://www.yelp.com/biz/marcos-pizza-forest?adjust_creative=6H8lmVuwW0ASiCP-qa0vsQ&utm_campaign=yelp_api_v3&utm_medium=api_v3_business_search&utm_source=6H8lmVuwW0ASiCP-qa0vsQ", "review_count": 21, "categories": [{"alias": "pizza", "title": "Pizza"}], "rating": 3.0, "coordinates": {"latitude": 37.3664, "longitude": -79.25923}, "transactions": ["pickup", "delivery"], "location": {"address1": "16955 Forest Rd", "address2": "", "address3": null, "city": "Forest", "zip_code": "24551", "country": "US", "state": "VA", "display_address": ["16955 Forest Rd", "Forest, VA 24551"]}, "phone": "+14344550010", "display_phone": "(434) 455-0010", "distance": 6402.602588346987}, {"id": "Do7IZ2Fl4dQXdfhFOKtcXw", "alias": "bojangles-rustburg", "name": "Bojangles'", "image_url": "https://s3-media4.fl.yelpcdn.com/bphoto/1Gr3zUkFtDEXUVvTJoqdug/o.jpg", "is_closed": false, "url": "https://www.yelp.com/biz/bojangles-rustburg?adjust_creative=6H8lmVuwW0ASiCP-qa0vsQ&utm_campaign=yelp_api_v3&utm_medium=api_v3_business_search&utm_source=6H8lmVuwW0ASiCP-qa0vsQ", "review_count": 17, "categories": [{"alias": "desserts", "title": "Desserts"}, {"alias": "chickenshop", "title": "Chicken Shop"}, {"alias": "sandwiches", "title": "Sandwiches"}], "rating": 2.5, "coordinates": {"latitude": 37.27903, "longitude": -79.16717}, "transactions": ["delivery"], "price": "$", "location": {"address1": "1755 Calohan Rd", "address2": null, "address3": null, "city": "Rustburg", "zip_code": "24588", "country": "US", "state": "VA", "display_address": ["1755 Calohan Rd", "Rustburg, VA 24588"]}, "phone": "+14348213344", "display_phone": "(434) 821-3344", "distance": 11931.950895365042}, {"id": "6ajXg4526WOifC_Qf6lGhQ", "alias": "biscuitville-lynchburg", "name": "Biscuitville", "image_url": "https://s3-media3.fl.yelpcdn.com/bphoto/AdFb1Mog3Y42C3a0wX8NOA/o.jpg", "is_closed": false, "url": "https://www.yelp.com/biz/biscuitville-lynchburg?adjust_creative=6H8lmVuwW0ASiCP-qa0vsQ&utm_campaign=yelp_api_v3&utm_medium=api_v3_business_search&utm_source=6H8lmVuwW0ASiCP-qa0vsQ", "review_count": 21, "categories": [{"alias": "breakfast_brunch", "title": "Breakfast & Brunch"}], "rating": 3.5, "coordinates": {"latitude": 37.3488998, "longitude": -79.2322998}, "transactions": ["delivery"], "price": "$", "location": {"address1": "8123 Timberlake Rd", "address2": "", "address3": "", "city": "Lynchburg", "zip_code": "24502", "country": "US", "state": "VA", "display_address": ["8123 Timberlake Rd", "Lynchburg, VA 24502"]}, "phone": "+14342370329", "display_phone": "(434) 237-0329", "distance": 5474.66933922252}, {"id": "xzTY8nlArENg5pEJma0VXQ", "alias": "ledo-pizza-lynchburg-4", "name": "Ledo Pizza", "image_url": "https://s3-media2.fl.yelpcdn.com/bphoto/OQ1GHmyBW-DYuxK-rQI8gw/o.jpg", "is_closed": false, "url": "https://www.yelp.com/biz/ledo-pizza-lynchburg-4?adjust_creative=6H8lmVuwW0ASiCP-qa0vsQ&utm_campaign=yelp_api_v3&utm_medium=api_v3_business_search&utm_source=6H8lmVuwW0ASiCP-qa0vsQ", "review_count": 42, "categories": [{"alias": "pizza", "title": "Pizza"}, {"alias": "chicken_wings", "title": "Chicken Wings"}, {"alias": "italian", "title": "Italian"}], "rating": 3.5, "coordinates": {"latitude": 37.35494905, "longitude": -79.2255979}, "transactions": [], "price": "$", "location": {"address1": "126 Old Graves Mill Rd", "address2": "", "address3": "", "city": "Lynchburg", "zip_code": "24502", "country": "US", "state": "VA", "display_address": ["126 Old Graves Mill Rd", "Lynchburg, VA 24502"]}, "phone": "+14342379495", "display_phone": "(434) 237-9495", "distance": 4571.606623778943}, {"id": "MQ6PgTxDcwjZjCSR7lZR2A", "alias": "ollie-hibachi-and-sushi-madison-heights", "name": "Ollie Hibachi & Sushi", "image_url": "https://s3-media1.fl.yelpcdn.com/bphoto/DEMMUDndS-dCdaCrLqVH1w/o.jpg", "is_closed": false, "url": "https://www.yelp.com/biz/ollie-hibachi-and-sushi-madison-heights?adjust_creative=6H8lmVuwW0ASiCP-qa0vsQ&utm_campaign=yelp_api_v3&utm_medium=api_v3_business_search&utm_source=6H8lmVuwW0ASiCP-qa0vsQ", "review_count": 15, "categories": [{"alias": "japanese", "title": "Japanese"}, {"alias": "sushi", "title": "Sushi Bars"}, {"alias": "chinese", "title": "Chinese"}], "rating": 4.0, "coordinates": {"latitude": 37.46261, "longitude": -79.1164299}, "transactions": ["delivery"], "location": {"address1": "161 Madison Heights Sq", "address2": "", "address3": "", "city": "Madison Heights", "zip_code": "24572", "country": "US", "state": "VA", "display_address": ["161 Madison Heights Sq", "Madison Heights, VA 24572"]}, "phone": "+14348476888", "display_phone": "(434) 847-6888", "distance": 10810.625217896146}, {"id": "iJxjj03IfS-6YK_y70RJng", "alias": "panda-express-lynchburg", "name": "Panda Express", "image_url": "https://s3-media1.fl.yelpcdn.com/bphoto/BprcsDNGa25DCBni-FunPg/o.jpg", "is_closed": false, "url": "https://www.yelp.com/biz/panda-express-lynchburg?adjust_creative=6H8lmVuwW0ASiCP-qa0vsQ&utm_campaign=yelp_api_v3&utm_medium=api_v3_business_search&utm_source=6H8lmVuwW0ASiCP-qa0vsQ", "review_count": 35, "categories": [{"alias": "hotdogs", "title": "Fast Food"}, {"alias": "chinese", "title": "Chinese"}], "rating": 3.0, "coordinates": {"latitude": 37.345645229678084, "longitude": -79.1885626376205}, "transactions": ["pickup", "delivery"], "price": "$", "location": {"address1": "4010 Wards Rd", "address2": "", "address3": "", "city": "Lynchburg", "zip_code": "24502", "country": "US", "state": "VA", "display_address": ["4010 Wards Rd", "Lynchburg, VA 24502"]}, "phone": "+14348327009", "display_phone": "(434) 832-7009", "distance": 4423.99572879056}, {"id": "1SKSMnMfBEgYvaQOn-Peew", "alias": "blue-ridge-bagels-lynchburg", "name": "Blue Ridge Bagels", "image_url": "https://s3-media1.fl.yelpcdn.com/bphoto/PftUBNH72hUuL4kIT9LEpw/o.jpg", "is_closed": false, "url": "https://www.yelp.com/biz/blue-ridge-bagels-lynchburg?adjust_creative=6H8lmVuwW0ASiCP-qa0vsQ&utm_campaign=yelp_api_v3&utm_medium=api_v3_business_search&utm_source=6H8lmVuwW0ASiCP-qa0vsQ", "review_count": 99, "categories": [{"alias": "bagels", "title": "Bagels"}, {"alias": "coffee", "title": "Coffee & Tea"}, {"alias": "cafes", "title": "Cafes"}], "rating": 4.5, "coordinates": {"latitude": 37.32293, "longitude": -79.22874}, "transactions": ["pickup", "delivery"], "price": "$", "location": {"address1": "19327 Leesville Rd", "address2": "", "address3": "", "city": "Lynchburg", "zip_code": "24502", "country": "US", "state": "VA", "display_address": ["19327 Leesville Rd", "Lynchburg, VA 24502"]}, "phone": "+14342213952", "display_phone": "(434) 221-3952", "distance": 7710.689789788473}, {"id": "XtFbI35meyGfmTsxFd1utw", "alias": "chipotle-mexican-grill-lynchburg-2", "name": "Chipotle Mexican Grill", "image_url": "https://s3-media1.fl.yelpcdn.com/bphoto/4IZam-2SDHeuZv___MZytg/o.jpg", "is_closed": false, "url": "https://www.yelp.com/biz/chipotle-mexican-grill-lynchburg-2?adjust_creative=6H8lmVuwW0ASiCP-qa0vsQ&utm_campaign=yelp_api_v3&utm_medium=api_v3_business_search&utm_source=6H8lmVuwW0ASiCP-qa0vsQ", "review_count": 62, "categories": [{"alias": "mexican", "title": "Mexican"}, {"alias": "hotdogs", "title": "Fast Food"}], "rating": 2.5, "coordinates": {"latitude": 37.3452155695901, "longitude": -79.1888679898486}, "transactions": ["pickup", "delivery"], "price": "$", "location": {"address1": "4010 Wards Rd", "address2": "Ste A", "address3": "", "city": "Lynchburg", "zip_code": "24502", "country": "US", "state": "VA", "display_address": ["4010 Wards Rd", "Ste A", "Lynchburg, VA 24502"]}, "phone": "+14342376931", "display_phone": "(434) 237-6931", "distance": 4470.597324354798}, {"id": "rZvmeUdz5v882lFxuEcMig", "alias": "la-carreta-mexican-restaurant-madison-heights", "name": "La Carreta Mexican Restaurant", "image_url": "https://s3-media3.fl.yelpcdn.com/bphoto/OZZI7nkAwkE5_THKdcmM_Q/o.jpg", "is_closed": false, "url": "https://www.yelp.com/biz/la-carreta-mexican-restaurant-madison-heights?adjust_creative=6H8lmVuwW0ASiCP-qa0vsQ&utm_campaign=yelp_api_v3&utm_medium=api_v3_business_search&utm_source=6H8lmVuwW0ASiCP-qa0vsQ", "review_count": 21, "categories": [{"alias": "mexican", "title": "Mexican"}], "rating": 4.0, "coordinates": {"latitude": 37.44244, "longitude": -79.1181183}, "transactions": [], "price": "$", "location": {"address1": "Seminole Plz", "address2": "", "address3": "", "city": "Madison Heights", "zip_code": "24572", "country": "US", "state": "VA", "display_address": ["Seminole Plz", "Madison Heights, VA 24572"]}, "phone": "+14348466079", "display_phone": "(434) 846-6079", "distance": 9003.558818268008}, {"id": "xdt1J_KIm6MpdO2aqi_niQ", "alias": "olive-garden-italian-restaurant-lynchburg-4", "name": "Olive Garden Italian Restaurant", "image_url": "https://s3-media3.fl.yelpcdn.com/bphoto/IdsYJAs2VZKvVd47XXVY5g/o.jpg", "is_closed": false, "url": "https://www.yelp.com/biz/olive-garden-italian-restaurant-lynchburg-4?adjust_creative=6H8lmVuwW0ASiCP-qa0vsQ&utm_campaign=yelp_api_v3&utm_medium=api_v3_business_search&utm_source=6H8lmVuwW0ASiCP-qa0vsQ", "review_count": 65, "categories": [{"alias": "italian", "title": "Italian"}, {"alias": "salad", "title": "Salad"}, {"alias": "soup", "title": "Soup"}], "rating": 3.0, "coordinates": {"latitude": 37.344892802956245, "longitude": -79.18917159778675}, "transactions": [], "price": "$$", "location": {"address1": "4038 Wards Rd", "address2": "", "address3": "", "city": "Lynchburg", "zip_code": "24502", "country": "US", "state": "VA", "display_address": ["4038 Wards Rd", "Lynchburg, VA 24502"]}, "phone": "+14342374395", "display_phone": "(434) 237-4395", "distance": 4505.509887440398}, {"id": "u9_CHheDhd0vyax8nBpOOA", "alias": "moes-southwest-grill-lynchburg", "name": "Moe's Southwest Grill", "image_url": "https://s3-media1.fl.yelpcdn.com/bphoto/gNou6_rSY2frIAL5ltD-ww/o.jpg", "is_closed": false, "url": "https://www.yelp.com/biz/moes-southwest-grill-lynchburg?adjust_creative=6H8lmVuwW0ASiCP-qa0vsQ&utm_campaign=yelp_api_v3&utm_medium=api_v3_business_search&utm_source=6H8lmVuwW0ASiCP-qa0vsQ", "review_count": 36, "categories": [{"alias": "tex-mex", "title": "Tex-Mex"}, {"alias": "mexican", "title": "Mexican"}], "rating": 2.0, "coordinates": {"latitude": 37.35004314441233, "longitude": -79.18451028754001}, "transactions": ["delivery"], "price": "$", "location": {"address1": "3919 Wards Rd", "address2": "", "address3": "", "city": "Lynchburg", "zip_code": "24502", "country": "US", "state": "VA", "display_address": ["3919 Wards Rd", "Lynchburg, VA 24502"]}, "phone": "+14342376900", "display_phone": "(434) 237-6900", "distance": 3969.8806628868033}, {"id": "__q7da7aZwZbh1ZWDGc2XA", "alias": "biscuitville-madison-heights", "name": "Biscuitville", "image_url": "https://s3-media3.fl.yelpcdn.com/bphoto/GRLZDVnBsJJD0pV6Hz_5Sw/o.jpg", "is_closed": false, "url": "https://www.yelp.com/biz/biscuitville-madison-heights?adjust_creative=6H8lmVuwW0ASiCP-qa0vsQ&utm_campaign=yelp_api_v3&utm_medium=api_v3_business_search&utm_source=6H8lmVuwW0ASiCP-qa0vsQ", "review_count": 19, "categories": [{"alias": "breakfast_brunch", "title": "Breakfast & Brunch"}, {"alias": "sandwiches", "title": "Sandwiches"}], "rating": 4.0, "coordinates": {"latitude": 37.4433740175249, "longitude": -79.1199323276302}, "transactions": ["delivery"], "price": "$", "location": {"address1": "4712 S Amherst Hwy", "address2": "", "address3": "", "city": "Madison Heights", "zip_code": "24572", "country": "US", "state": "VA", "display_address": ["4712 S Amherst Hwy", "Madison Heights, VA 24572"]}, "phone": "+14345280507", "display_phone": "(434) 528-0507", "distance": 9054.986141191537}, {"id": "TaSJi7CFueF-m3Zanq3xTw", "alias": "la-carreta-lynchburg-3", "name": "La Carreta", "image_url": "https://s3-media4.fl.yelpcdn.com/bphoto/RN5cJBRk1PPEayuyT6a7vg/o.jpg", "is_closed": false, "url": "https://www.yelp.com/biz/la-carreta-lynchburg-3?adjust_creative=6H8lmVuwW0ASiCP-qa0vsQ&utm_campaign=yelp_api_v3&utm_medium=api_v3_business_search&utm_source=6H8lmVuwW0ASiCP-qa0vsQ", "review_count": 91, "categories": [{"alias": "mexican", "title": "Mexican"}, {"alias": "newamerican", "title": "American (New)"}], "rating": 3.5, "coordinates": {"latitude": 37.34679, "longitude": -79.23226}, "transactions": ["delivery"], "price": "$", "location": {"address1": "8210 Timberlake Rd", "address2": "", "address3": "", "city": "Lynchburg", "zip_code": "24502", "country": "US", "state": "VA", "display_address": ["8210 Timberlake Rd", "Lynchburg, VA 24502"]}, "phone": "+14342399701", "display_phone": "(434) 239-9701", "distance": 5645.4626476392095}, {"id": "baVycWZrn6wbaJsiiIa5VQ", "alias": "taco-bell-lynchburg", "name": "Taco Bell", "image_url": "https://s3-media3.fl.yelpcdn.com/bphoto/csSixJtxtxEVws1gSlf2Xg/o.jpg", "is_closed": false, "url": "https://www.yelp.com/biz/taco-bell-lynchburg?adjust_creative=6H8lmVuwW0ASiCP-qa0vsQ&utm_campaign=yelp_api_v3&utm_medium=api_v3_business_search&utm_source=6H8lmVuwW0ASiCP-qa0vsQ", "review_count": 18, "categories": [{"alias": "mexican", "title": "Mexican"}, {"alias": "hotdogs", "title": "Fast Food"}], "rating": 2.0, "coordinates": {"latitude": 37.339308, "longitude": -79.238369}, "transactions": ["delivery"], "price": "$", "location": {"address1": "8131 Timberlake Road", "address2": "", "address3": "", "city": "Lynchburg", "zip_code": "24502", "country": "US", "state": "VA", "display_address": ["8131 Timberlake Road", "Lynchburg, VA 24502"]}, "phone": "+14342390566", "display_phone": "(434) 239-0566", "distance": 6626.587982136726}, {"id": "qmMuLNHvNJHJUdljAUOB2A", "alias": "subway-lynchburg-22", "name": "Subway", "image_url": "https://s3-media2.fl.yelpcdn.com/bphoto/uj5GF7bjabS2JIDLYI4D7g/o.jpg", "is_closed": false, "url": "https://www.yelp.com/biz/subway-lynchburg-22?adjust_creative=6H8lmVuwW0ASiCP-qa0vsQ&utm_campaign=yelp_api_v3&utm_medium=api_v3_business_search&utm_source=6H8lmVuwW0ASiCP-qa0vsQ", "review_count": 5, "categories": [{"alias": "sandwiches", "title": "Sandwiches"}], "rating": 2.5, "coordinates": {"latitude": 37.3290865, "longitude": -79.2477006}, "transactions": ["pickup", "delivery"], "price": "$", "location": {"address1": "3412 Waterlick Rd", "address2": "Ste 2", "address3": "", "city": "Lynchburg", "zip_code": "24502", "country": "US", "state": "VA", "display_address": ["3412 Waterlick Rd", "Ste 2", "Lynchburg, VA 24502"]}, "phone": "+14342376579", "display_phone": "(434) 237-6579", "distance": 8029.047065203114}, {"id": "ogxYi_2qROvZWSM-nVPmLA", "alias": "taco-bell-forest-3", "name": "Taco Bell", "image_url": "https://s3-media3.fl.yelpcdn.com/bphoto/AXfjaBSgaF2LbwMhMC-cgw/o.jpg", "is_closed": false, "url": "https://www.yelp.com/biz/taco-bell-forest-3?adjust_creative=6H8lmVuwW0ASiCP-qa0vsQ&utm_campaign=yelp_api_v3&utm_medium=api_v3_business_search&utm_source=6H8lmVuwW0ASiCP-qa0vsQ", "review_count": 6, "categories": [{"alias": "hotdogs", "title": "Fast Food"}, {"alias": "mexican", "title": "Mexican"}], "rating": 2.0, "coordinates": {"latitude": 37.367613, "longitude": -79.297526}, "transactions": ["delivery"], "price": "$", "location": {"address1": "14867 Forest Road", "address2": null, "address3": null, "city": "Forest", "zip_code": "24551", "country": "US", "state": "VA", "display_address": ["14867 Forest Road", "Forest, VA 24551"]}, "phone": "+14345259685", "display_phone": "(434) 525-9685", "distance": 9633.238470738335}, {"id": "J6_Wsg3XLdF-fK2MWYUVVg", "alias": "subway-rustburg-4", "name": "Subway", "image_url": "https://s3-media2.fl.yelpcdn.com/bphoto/PXUkgoHT1IA74tKrAbatIg/o.jpg", "is_closed": false, "url": "https://www.yelp.com/biz/subway-rustburg-4?adjust_creative=6H8lmVuwW0ASiCP-qa0vsQ&utm_campaign=yelp_api_v3&utm_medium=api_v3_business_search&utm_source=6H8lmVuwW0ASiCP-qa0vsQ", "review_count": 1, "categories": [{"alias": "sandwiches", "title": "Sandwiches"}], "rating": 1.0, "coordinates": {"latitude": 37.2793513, "longitude": -79.1681142911707}, "transactions": [], "price": "$", "location": {"address1": "1788 Calohan Rd", "address2": "", "address3": "", "city": "Rustburg", "zip_code": "24588", "country": "US", "state": "VA", "display_address": ["1788 Calohan Rd", "Rustburg, VA 24588"]}, "phone": "+14346162266", "display_phone": "(434) 616-2266", "distance": 11960.781906457429}, {"id": "c9QYtmzkh8usQG2TsrKrOg", "alias": "la-caretta-forest", "name": "La Caretta", "image_url": "https://s3-media2.fl.yelpcdn.com/bphoto/cvhD6eKdrHPUsO-wEec2Tg/o.jpg", "is_closed": false, "url": "https://www.yelp.com/biz/la-caretta-forest?adjust_creative=6H8lmVuwW0ASiCP-qa0vsQ&utm_campaign=yelp_api_v3&utm_medium=api_v3_business_search&utm_source=6H8lmVuwW0ASiCP-qa0vsQ", "review_count": 30, "categories": [{"alias": "mexican", "title": "Mexican"}, {"alias": "bars", "title": "Bars"}], "rating": 4.0, "coordinates": {"latitude": 37.3694915771484, "longitude": -79.3010940551758}, "transactions": ["delivery"], "price": "$", "location": {"address1": "14575 Forest Rd", "address2": "", "address3": "", "city": "Forest", "zip_code": "24551", "country": "US", "state": "VA", "display_address": ["14575 Forest Rd", "Forest, VA 24551"]}, "phone": "+14345254737", "display_phone": "(434) 525-4737", "distance": 9902.484854008177}, {"id": "xu_cfWtJcq9UWKudEquWoA", "alias": "subway-forest-7", "name": "Subway", "image_url": "https://s3-media3.fl.yelpcdn.com/bphoto/-5ffD49dQzVgeOV4tX5tVg/o.jpg", "is_closed": false, "url": "https://www.yelp.com/biz/subway-forest-7?adjust_creative=6H8lmVuwW0ASiCP-qa0vsQ&utm_campaign=yelp_api_v3&utm_medium=api_v3_business_search&utm_source=6H8lmVuwW0ASiCP-qa0vsQ", "review_count": 5, "categories": [{"alias": "sandwiches", "title": "Sandwiches"}], "rating": 1.5, "coordinates": {"latitude": 37.3648674699833, "longitude": -79.2957412255856}, "transactions": ["pickup", "delivery"], "price": "$", "location": {"address1": "14805 Forest Rd", "address2": "Ste 232", "address3": null, "city": "Forest", "zip_code": "24551", "country": "US", "state": "VA", "display_address": ["14805 Forest Rd", "Ste 232", "Forest, VA 24551"]}, "phone": "+14345253240", "display_phone": "(434) 525-3240", "distance": 9547.443216709693}, {"id": "iwNaYH6YEZs28iCQm8_fhQ", "alias": "subway-madison-heights-5", "name": "Subway", "image_url": "https://s3-media1.fl.yelpcdn.com/bphoto/deFB42VwYJL4JJvFNMhKXw/o.jpg", "is_closed": false, "url": "https://www.yelp.com/biz/subway-madison-heights-5?adjust_creative=6H8lmVuwW0ASiCP-qa0vsQ&utm_campaign=yelp_api_v3&utm_medium=api_v3_business_search&utm_source=6H8lmVuwW0ASiCP-qa0vsQ", "review_count": 11, "categories": [{"alias": "sandwiches", "title": "Sandwiches"}], "rating": 2.5, "coordinates": {"latitude": 37.4492634712345, "longitude": -79.1208506}, "transactions": ["pickup", "delivery"], "price": "$", "location": {"address1": "4574 S Amherst Hwy", "address2": "", "address3": "", "city": "Madison Heights", "zip_code": "24572", "country": "US", "state": "VA", "display_address": ["4574 S Amherst Hwy", "Madison Heights, VA 24572"]}, "phone": "+14348457827", "display_phone": "(434) 845-7827", "distance": 9414.563201112598}, {"id": "aEHbJKaYZ-Mves0f4Tjujg", "alias": "dominos-pizza-forest-4", "name": "Domino's Pizza", "image_url": "https://s3-media2.fl.yelpcdn.com/bphoto/LRm23CLIWNLZvNqdf4TFKA/o.jpg", "is_closed": false, "url": "https://www.yelp.com/biz/dominos-pizza-forest-4?adjust_creative=6H8lmVuwW0ASiCP-qa0vsQ&utm_campaign=yelp_api_v3&utm_medium=api_v3_business_search&utm_source=6H8lmVuwW0ASiCP-qa0vsQ", "review_count": 14, "categories": [{"alias": "pizza", "title": "Pizza"}, {"alias": "chicken_wings", "title": "Chicken Wings"}, {"alias": "sandwiches", "title": "Sandwiches"}], "rating": 1.5, "coordinates": {"latitude": 37.3700233, "longitude": -79.3017448}, "transactions": [], "price": "$", "location": {"address1": "14521 Forest Rd", "address2": "", "address3": null, "city": "Forest", "zip_code": "24551", "country": "US", "state": "VA", "display_address": ["14521 Forest Rd", "Forest, VA 24551"]}, "phone": "+14343850404", "display_phone": "(434) 385-0404", "distance": 9949.106677681655}]